     3.03           OBSERVATION DATA    M: Mixed            RINEX VERSION / TYPE
RTKCONV 2.4.3 b33   MKJ                 20191113 085046 UTC PGM / RUN BY / DATE            
Receiver                                                    MARKER NAME         
XXXXXXX                                                     MARKER TYPE         
                                GSA                         OBSERVER / AGENCY   
                                                            REC # / TYPE / VERS
                                                            ANT # / TYPE        
  4200916.7746   172419.9790  4780125.6940                  APPROX POSITION XYZ 
        0.0000        0.0000        0.0000                  ANTENNA: DELTA H/E/N
G    4 C1C L1C D1C S1C                                      SYS / # / OBS TYPES 
E    4 C1C L1C D1C S1C                                      SYS / # / OBS TYPES 
  2019    11     1     2     2   57.0010000     GPS         TIME OF FIRST OBS   
  2019    11     1     2    17   58.9960000     GPS         TIME OF LAST OBS    
G                                                           SYS / PHASE SHIFT   
E                                                           SYS / PHASE SHIFT   
                                                            END OF HEADER       
> 2019 11  1  2  2 57.0010000  0 17                     
G 2  22022115.055   115726995.048        1187.378          46.000  
G 4  22151403.352   116406410.098        -889.354          46.000  
G 9  20999996.018   110355723.4432      -4001.331          46.000  
G12  19200334.768   100898439.322       -1848.383          46.000  
G14  20247192.892   106399715.917        -645.933          46.000  
G25  18997978.588    99835050.491         357.341          46.000  
G27  22637275.419   118959685.1672      -3565.806          46.000  
G29  21223624.886   111530900.8462       2883.197          46.000  
E 1  25227467.713   132571247.456       -3152.988          43.000  
E 7  26066249.022   136979072.988        2602.279          43.000  
E 8  22693632.422   119255852.852        1360.155          43.000  
E 9  22318499.908   117284518.469       -1204.779          43.000  
E11  27361824.785   143787369.797       -2517.753          43.000  
E19  22060451.184   115928463.251         307.428          43.000  
E20  22591832.301   118720890.024       -2165.739          43.000  
E27  24968761.081   131211735.416        2109.379          43.000  
E10  27112092.608   142475018.317        -936.427          43.000  
> 2019 11  1  2  2 58.0010000  0 17                     
G 2  22021888.831   115725805.620        1192.345          46.000  
G 4  22151571.223   116407291.697        -873.209          46.000  
G 9  21000758.156   110359728.4472      -4007.703          46.000  
G12  19200685.692   100900284.151       -1841.210          46.000  
G14  20247316.247   106400363.207        -649.524          46.000  
G25  18997910.602    99834692.608         357.627          46.000  
G27  22637954.913   118963254.9822      -3572.904          46.000  
G29  21223078.031   111528026.2172       2866.083          46.000  
E 1  25228066.046   132574391.657       -3135.198          43.000  
E 7  26065755.251   136976479.994        2583.113          43.000  
E 8  22693374.630   119254498.212        1348.906          43.000  
E 9  22318728.750   117285720.744       -1199.451          43.000  
E11  27362303.410   143789884.815       -2514.048          43.000  
E19  22060392.673   115928154.997         308.535          43.000  
E20  22592244.859   118723058.532       -2171.039          43.000  
E27  24968359.115   131209621.882        2116.211          43.000  
E10  27112269.134   142475946.007        -920.309          43.000  
> 2019 11  1  2  2 59.0010000  0 17                     
G 2  22021661.175   115724608.209        1203.585          46.000  
G 4  22151735.552   116408155.927        -854.798          46.000  
G 9  21001521.202   110363737.0822      -4008.331          46.000  
G12  19201035.307   100902121.868       -1833.700          46.000  
G14  20247440.790   106401017.514        -659.434          46.000  
G25  18997842.982    99834336.249         354.907          46.000  
G27  22638634.913   118966828.8942      -3573.319          46.000  
G29  21222534.212   111525169.0042       2849.359          46.000  
E 1  25228660.907   132577517.214       -3115.835          43.000  
E 7  26065265.615   136973906.912        2563.478          43.000  
E 8  22693118.809   119253154.649        1338.696          43.000  
E 9  22318956.336   117286916.917       -1192.153          43.000  
E11  27362782.366   143792400.958       -2519.414          43.000  
E19  22060333.953   115927847.710         306.134          43.000  
E20  22592658.220   118725230.753       -2172.633          43.000  
E27  24967956.399   131207506.002        2114.764          43.000  
E10  27112443.514   142476861.064        -911.114          43.000  
> 2019 11  1  2  3  0.0010000  0 17                     
G 2  22021430.675   115723397.443        1218.502          46.000  
G 4  22151896.338   116409001.441        -836.690          46.000  
G 9  21002283.235   110367743.0032      -4002.802          46.000  
G12  19201383.735   100903952.075       -1826.902          46.000  
G14  20247567.443   106401683.915        -673.717          46.000  
G25  18997775.973    99833984.313         348.691          46.000  
G27  22639314.250   118970399.6552      -3567.105          46.000  
G29  21221993.378   111522327.0732       2835.437          46.000  
E 1  25229251.719   132580623.997       -3098.415          43.000  
E 7  26064779.714   136971352.956        2545.329          43.000  
E 8  22692864.944   119251820.261        1330.680          43.000  
E 9  22319182.404   117288105.371       -1184.353          43.000  
E11  27363262.997   143794926.802       -2533.207          43.000  
E19  22060276.141   115927544.520         300.218          43.000  
E20  22593072.139   118727402.876       -2170.958          43.000  
E27  24967554.712   131205395.865        2104.742          43.000  
E10  27112616.359   142477771.462        -911.171          43.000  
> 2019 11  1  2  3  1.0010000  0 17                     
G 2  22021197.226   115722170.710        1235.490          46.000  
G 4  22152054.141   116409830.597        -821.844          46.000  
G 9  21003043.943   110371740.4561      -3991.888          46.000  
G12  19201731.030   100905776.256       -1821.358          46.000  
G14  20247697.029   106402366.344        -690.398          46.000  
G25  18997710.483    99833639.631         341.101          46.000  
G27  22639992.086   118973961.1542      -3554.551          46.000  
G29  21221454.864   111519496.5232       2827.344          46.000  
E 1  25229840.332   132583715.439       -3084.867          43.000  
E 7  26064296.919   136968814.864        2532.681          43.000  
E 8  22692612.404   119250492.403        1326.412          43.000  
E 9  22319407.128   117289286.408       -1176.940          43.000  
E11  27363747.101   143797470.054       -2553.218          43.000  
E19  22060220.108   115927248.581         292.036          43.000  
E20  22593484.610   118729571.753       -2165.851          43.000  
E27  24967155.783   131203299.260        2088.500          43.000  
E10  27112789.622   142478686.603        -919.675          43.000  
> 2019 11  1  2  3  2.0010000  0 17                     
G 2  22020960.095   115720925.588        1254.304          46.000  
G 4  22152209.081   116410645.984        -809.865          46.000  
G 9  21003801.910   110375724.072       -3974.945          46.000  
G12  19202077.085   100907594.478       -1815.632          46.000  
G14  20247829.912   106403063.844        -704.043          46.000  
G25  18997645.812    99833301.560         335.140          46.000  
G27  22640666.624   118977506.3672      -3535.486          46.000  
G29  21220917.118   111516669.3042       2828.314          46.000  
E 1  25230426.311   132586795.021       -3075.426          43.000  
E 7  26063815.485   136966284.524        2529.313          43.000  
E 8  22692359.603   119249164.999        1329.099          43.000  
E 9  22319630.281   117290459.132       -1168.747          43.000  
E11  27364234.870   143800033.252       -2573.256          43.000  
E19  22060165.384   115926959.488         286.065          43.000  
E20  22593895.493   118731732.373       -2155.319          43.000  
E27  24966760.117   131201219.461        2070.711          43.000  
E10  27112966.515   142479612.779        -933.479          44.000  
> 2019 11  1  2  3  3.0010000  0 17                     
G 2  22020719.719   115719663.337        1268.784          46.000  
G 4  22152362.748   116411453.212        -806.197          46.000  
G 9  21004556.632   110379689.985       -3957.526          46.000  
G12  19202422.285   100909408.509       -1813.602          46.000  
G14  20247965.064   106403773.901        -715.718          46.000  
G25  18997582.590    99832969.150         329.403          46.000  
G27  22641337.218   118981031.5422      -3515.602          46.000  
G29  21220377.941   111513837.5582       2835.718          46.000  
E 1  25231011.277   132589868.815       -3074.106          43.000  
E 7  26063334.208   136963753.270        2533.686          43.000  
E 8  22692106.086   119247832.670        1335.498          43.000  
E 9  22319852.126   117291624.706       -1163.596          43.000  
E11  27364726.634   143802616.555       -2593.451          43.000  
E19  22060111.341   115926676.587         279.380          43.000  
E20  22594304.351   118733881.766       -2144.197          43.000  
E27  24966368.028   131199157.755        2051.999          43.000  
E10  27113146.112   142480555.303        -952.747          43.000  
> 2019 11  1  2  3  4.0010000  0 17                     
G 2  22020477.736   115718390.354        1276.519          46.000  
G 4  22152516.484   116412261.633        -811.105          46.000  
G 9  21005308.266   110383640.039       -3942.499          46.000  
G12  19202767.607   100911223.189       -1815.655          46.000  
G14  20248102.223   106404494.499        -723.950          46.000  
G25  18997520.869    99832643.029         324.040          46.000  
G27  22642004.777   118984538.5112      -3498.412          46.000  
G29  21219837.264   111510996.5992       2847.613          46.000  
E 1  25231596.819   132592946.200       -3081.302          43.000  
E 7  26062850.959   136961214.975        2544.506          43.000  
E 8  22691850.929   119246493.241        1344.207          43.000  
E 9  22320073.168   117292787.895       -1162.812          43.000  
E11  27365222.378   143805219.341       -2610.656          43.000  
E19  22060059.112   115926400.588         273.455          43.000  
E20  22594711.622   118736021.181       -2134.540          43.000  
E27  24965979.760   131197115.032        2034.538          43.000  
E10  27113329.375   142481519.359        -974.742          43.000  
> 2019 11  1  2  3  4.9950000  0 17                     
G 2  22020235.981   115717119.758        1278.817          46.000  
G 4  22152671.093   116413072.875        -822.095          46.000  
G 9  21006052.849   110387552.338       -3930.070          46.000  
G12  19203111.446   100913029.705       -1819.427          46.000  
G14  20248239.277   106405214.991        -725.045          46.000  
G25  18997459.723    99832322.097         322.249          46.000  
G27  22642665.006   118988008.3852      -3484.361          46.000  
G29  21219297.127   111508157.6802       2864.806          46.000  
E 1  25232180.755   132596014.760       -3093.956          43.000  
E 7  26062367.745   136958677.324        2562.037          43.000  
E 8  22691595.754   119245151.150        1356.039          43.000  
E 9  22320293.337   117293944.198       -1164.494          43.000  
E11  27365717.161   143807819.553       -2620.252          43.000  
E19  22060007.704   115926130.140         271.039          43.000  
E20  22595114.530   118738137.978       -2125.228          43.000  
E27  24965596.065   131195098.581        2023.453          43.000  
E10  27113515.656   142482498.137        -994.162          43.000  
> 2019 11  1  2  3  5.9950000  0 17                     
G 2  22019993.179   115715843.885        1272.526          46.000  
G 4  22152829.122   116413903.485        -839.153          46.000  
G 9  21006800.172   110391479.394       -3924.494          46.000  
G12  19203458.339   100914852.905       -1826.715          46.000  
G14  20248376.924   106405938.575        -720.855          46.000  
G25  18997398.612    99832000.338         322.329          46.000  
G27  22643327.590   118991488.9312      -3477.461          46.000  
G29  21218750.394   111505284.3982       2882.251          46.000  
E 1  25232771.410   132599117.446       -3111.581          43.000  
E 7  26061877.812   136956105.651        2581.951          43.000  
E 8  22691336.758   119243789.564        1367.202          43.000  
E 9  22320515.443   117295111.399       -1170.000          43.000  
E11  27366215.993   143810441.535       -2622.195          43.000  
E19  22059956.261   115925859.739         270.669          43.000  
E20  22595517.979   118740260.834       -2120.619          43.000  
E27  24965211.183   131193078.377        2018.317          44.000  
E10  27113706.456   142483500.746       -1009.715          43.000  
> 2019 11  1  2  3  6.9950000  0 17                     
G 2  22019752.139   115714577.024        1260.110          46.000  
G 4  22152990.694   116414752.446        -859.054          46.000  
G 9  21007546.867   110395403.535       -3925.201          46.000  
G12  19203806.524   100916683.328       -1834.503          46.000  
G14  20248513.140   106406654.953        -711.391          46.000  
G25  18997336.891    99831676.699         325.106          46.000  
G27  22643989.076   118994965.5041      -3478.203          46.000  
G29  21218200.241   111502393.1981       2898.438          46.000  
E 1  25233365.032   132602238.586       -3130.992          43.000  
E 7  26061384.966   136953513.395        2602.030          43.000  
E 8  22691075.354   119242417.057        1376.914          43.000  
E 9  22320739.033   117296285.089       -1178.004          43.000  
E11  27366714.336   143813060.917       -2615.783          43.000  
E19  22059904.050   115925587.848         273.203          43.000  
E20  22595921.027   118742380.340       -2119.604          43.000  
E27  24964826.859   131191058.838        2021.391          43.000  
E10  27113899.770   142484515.134       -1018.225          43.000  
> 2019 11  1  2  3  7.9950000  0 17                     
G 2  22019513.961   115713325.715        1242.421          46.000  
G 4  22153156.104   116415622.062        -879.357          46.000  
G 9  21008294.678   110399332.524       -3933.522          46.000  
G12  19204156.400   100918522.608       -1843.365          46.000  
G14  20248647.385   106407360.658        -699.218          46.000  
G25  18997274.506    99831349.765         329.357          46.000  
G27  22644651.800   118998447.740       -3486.973          46.000  
G29  21217647.523   111499488.987        2909.561          46.000  
E 1  25233962.946   132605379.295       -3149.803          43.000  
E 7  26060888.280   136950903.263        2617.748          44.000  
E 8  22690813.130   119241037.119        1382.640          43.000  
E 9  22320964.176   117297468.119       -1187.823          43.000  
E11  27367210.935   143815670.658       -2602.441          43.000  
E19  22059851.629   115925312.778         277.581          43.000  
E20  22596324.720   118744501.778       -2123.677          43.000  
E27  24964441.262   131189033.361        2030.883          43.000  
E10  27114093.956   142485534.528       -1018.998          44.000  
> 2019 11  1  2  3  8.9950000  0 17                     
G 2  22019279.220   115712092.393        1224.230          46.000  
G 4  22153325.249   116416509.785        -895.100          46.000  
G 9  21009044.218   110403271.675       -3945.697          46.000  
G12  19204508.005   100920369.301       -1849.628          46.000  
G14  20248779.082   106408052.286        -683.965          46.000  
G25  18997211.232    99831017.030         336.292          46.000  
G27  22645316.461   119001941.312       -3500.799          46.000  
G29  21217093.112   111496575.632        2916.160          46.000  
E 1  25234563.932   132608535.931       -3162.694          43.000  
E 7  26060388.698   136948279.030        2629.427          43.000  
E 8  22690549.701   119239652.785        1385.372          43.000  
E 9  22321191.063   117298660.215       -1196.169          43.000  
E11  27367704.340   143818263.596       -2582.631          43.000  
E19  22059798.005   115925031.751         284.621          43.000  
E20  22596729.687   118746628.457       -2130.125          43.000  
E27  24964053.431   131186994.574        2047.415          43.000  
E10  27114286.990   142486549.752       -1010.193          43.000  
> 2019 11  1  2  3  9.9950000  0 17                     
G 2  22019048.197   115710877.813        1205.126          46.000  
G 4  22153496.890   116417411.362        -907.004          46.000  
G 9  21009796.828   110407225.837       -3963.242          46.000  
G12  19204860.656   100922221.924       -1855.408          46.000  
G14  20248908.266   106408729.879        -671.699          46.000  
G25  18997146.596    99830678.023         341.575          46.000  
G27  22645984.491   119005451.666       -3520.584          46.000  
G29  21216538.405   111493660.078        2913.718          46.000  
E 1  25235166.837   132611703.469       -3171.306          43.000  
E 7  26059887.981   136945647.851        2631.423          43.000  
E 8  22690286.098   119238268.923        1381.591          44.000  
E 9  22321419.644   117299860.806       -1204.838          43.000  
E11  27368193.748   143820836.341       -2562.709          44.000  
E19  22059743.944   115924743.987         290.618          43.000  
E20  22597136.208   118748763.983       -2141.330          43.000  
E27  24963662.337   131184938.298        2065.319          44.000  
E10  27114477.896   142487553.439        -996.540          43.000  
> 2019 11  1  2  3 10.9950000  0 18                     
G 2  22018820.594   115709681.036        1189.591          46.000  
G 4  22153669.996   116418321.697        -911.991          46.000  
G 9  21010552.719   110411198.749       -3982.180          46.000  
G12  19205214.093   100924079.345       -1858.557          46.000  
G14  20249035.146   106409396.987        -662.871          46.000  
G25  18997081.437    99830334.531         345.730          46.000  
G27  22646656.708   119008982.875       -3541.576          46.000  
G29  21215984.936   111490750.872        2904.069          46.000  
E 1  25235770.597   132614876.359       -3172.698          44.000  
E 7  26059388.085   136943019.159        2625.017          44.000  
E 8  22690023.996   119236891.573        1373.163          44.000  
E 9  22321649.707   117301069.252       -1210.947          44.000  
E11  27368679.877   143823389.923       -2544.460          44.000  
E19  22059688.278   115924451.099         295.538          43.000  
E20  22597545.433   118750911.836       -2154.031          43.000  
E27  24963267.805   131182864.349        2082.927          44.000  
E10  27114665.922   142488541.309        -978.611          44.000  
E21  26162082.163   137482679.932       -3390.223          44.000  
> 2019 11  1  2  3 11.9950000  0 18                     
G 2  22018595.015   115708495.549        1182.382          46.000  
G 4  22153843.259   116419231.561        -906.748          46.000  
G 9  21011312.205   110415188.380       -3996.682          46.000  
G12  19205567.652   100925936.864       -1856.152          46.000  
G14  20249160.578   106410056.085        -656.433          46.000  
G25  18997015.039    99829986.284         350.481          46.000  
G27  22647332.433   119012532.889       -3558.191          46.000  
G29  21215433.492   111487852.752        2891.362          46.000  
E 1  25236373.572   132618045.422       -3164.420          44.000  
E 7  26058889.602   136940399.188        2613.596          44.000  
E 8  22689763.569   119235522.975        1363.582          44.000  
E 9  22321880.260   117302280.920       -1211.735          44.000  
E11  27369162.480   143825925.604       -2528.025          44.000  
E19  22059631.163   115924152.688         300.936          44.000  
E20  22597955.757   118753070.738       -2163.755          43.000  
E27  24962869.451   131180772.512        2099.862          44.000  
E10  27114850.056   142489508.810        -956.827          44.000  
E21  26162735.412   137486078.906       -3407.425          44.000  
> 2019 11  1  2  3 12.9950000  0 18                     
G 2  22018370.082   115707314.544        1180.719          46.000  
G 4  22154014.899   116420133.290        -895.757          46.000  
G 9  21012074.029   110419191.536       -4008.624          46.000  
G12  19205920.373   100927791.235       -1852.374          46.000  
G14  20249285.592   106410712.434        -657.346          46.000  
G25  18996948.309    99829635.220         351.274          46.000  
G27  22648010.758   119016098.120       -3571.465          46.000  
G29  21214884.979   111484970.153        2873.544          46.000  
E 1  25236974.470   132621203.482       -3150.981          44.000  
E 7  26058394.033   136937794.198        2595.527          44.000  
E 8  22689505.463   119234165.410        1351.181          44.000  
E 9  22322110.829   117303492.100       -1210.164          44.000  
E11  27369642.535   143828448.933       -2519.970          44.000  
E19  22059573.577   115923850.673         302.542          44.000  
E20  22598368.507   118755239.128       -2172.720          44.000  
E27  24962468.881   131178666.773        2110.303          44.000  
E10  27115030.125   142490456.099        -938.472          44.000  
E21  26163386.113   137489493.315       -3420.789          44.000  
> 2019 11  1  2  3 13.9950000  0 18                     
G 2  22018145.078   115706131.249        1186.389          46.000  
G 4  22154183.695   116421021.361        -880.242          46.000  
G 9  21012837.459   110423203.621       -4014.854          46.000  
G12  19206272.396   100929640.466       -1846.490          46.000  
G14  20249411.268   106411372.545        -664.335          46.000  
G25  18996881.615    99829284.485         349.164          46.000  
G27  22648691.054   119019673.336       -3578.302          46.000  
G29  21214340.183   111482105.839        2854.678          46.000  
E 1  25237572.000   132624345.873       -3133.764          44.000  
E 7  26057902.199   136935208.812        2574.618          44.000  
E 8  22689249.433   119232820.224        1338.677          44.000  
E 9  22322340.684   117304699.940       -1205.612          44.000  
E11  27370121.771   143830968.142       -2520.291          44.000  
E19  22059516.166   115923548.327         301.162          44.000  
E20  22598782.374   118757414.722       -2178.471          44.000  
E27  24962066.601   131176554.105        2113.228          44.000  
E10  27115207.192   142491387.315        -925.408          44.000  
E21  26164036.622   137492917.696       -3427.292          44.000  
> 2019 11  1  2  3 14.9950000  0 18                     
G 2  22017918.313   115704939.779        1198.135          46.000  
G 4  22154349.542   116421892.875        -861.967          46.000  
G 9  21013601.586   110427219.087       -4014.111          46.000  
G12  19206623.338   100931483.831       -1839.471          46.000  
G14  20249538.777   106412042.840        -676.257          46.000  
G25  18996815.496    99828937.629         344.809          46.000  
G27  22649371.944   119023252.130       -3577.389          46.000  
G29  21213798.546   111479260.108        2837.979          46.000  
E 1  25238166.424   132627470.799       -3115.484          44.000  
E 7  26057413.994   136932644.986        2554.315          44.000  
E 8  22688996.091   119231487.241        1328.339          44.000  
E 9  22322569.770   117305902.602       -1198.668          44.000  
E11  27370601.686   143833492.575       -2529.136          44.000  
E19  22059459.261   115923249.410         297.005          44.000  
E20  22599197.305   118759594.516       -2179.624          44.000  
E27  24961665.229   131174442.939        2108.619          44.000  
E10  27115382.934   142492309.573        -919.641          44.000  
E21  26164689.173   137496345.440       -3426.120          44.000  
> 2019 11  1  2  3 15.9950000  0 18                     
G 2  22017688.825   115703733.135        1215.655          46.000  
G 4  22154511.690   116422745.261        -843.118          46.000  
G 9  21014364.859   110431229.472       -4005.503          46.000  
G12  19206972.359   100933319.175       -1831.256          46.000  
G14  20249668.886   106412725.812        -690.014          46.000  
G25  18996750.337    99828595.260         339.683          46.000  
G27  22650051.787   119026825.147       -3567.588          46.000  
G29  21213259.474   111476427.950        2827.227          46.000  
E 1  25238757.655   132630576.815       -3097.054          44.000  
E 7  26056929.349   136930098.843        2538.986          44.000  
E 8  22688743.935   119230161.997        1322.859          44.000  
E 9  22322796.972   117307096.672       -1189.332          44.000  
E11  27371084.569   143836028.329       -2543.256          44.000  
E19  22059403.176   115922954.766         292.114          44.000  
E20  22599612.045   118761772.501       -2175.276          44.000  
E27  24961264.677   131172339.086        2098.337          44.000  
E10  27115558.238   142493229.073        -920.549          44.000  
E21  26165340.869   137499766.967       -3415.798          44.000  
> 2019 11  1  2  3 16.9950000  0 18                     
G 2  22017455.725   115702508.579        1233.728          46.000  
G 4  22154670.731   116423580.803        -828.564          46.000  
G 9  21015125.845   110435228.911       -3992.407          46.000  
G12  19207320.579   100935147.379       -1825.195          46.000  
G14  20249801.629   106413423.811        -705.647          46.000  
G25  18996686.731    99828259.042         332.880          46.000  
G27  22650729.536   119030385.714       -3552.414          46.000  
G29  21212722.199   111473604.015        2822.012          46.000  
E 1  25239345.745   132633667.295       -3084.490          44.000  
E 7  26056447.444   136927565.477        2529.098          44.000  
E 8  22688492.425   119228840.617        1320.878          44.000  
E 9  22323021.853   117308281.954       -1181.295          44.000  
E11  27371570.523   143838581.573       -2563.405          44.000  
E19  22059348.819   115922666.394         284.810          44.000  
E20  22600025.144   118763944.741       -2168.239          44.000  
E27  24960867.056   131170248.960        2081.739          44.000  
E10  27115734.119   142494154.290        -930.550          44.000  
E21  26165989.528   137503175.470       -3400.208          44.000  
> 2019 11  1  2  3 17.9950000  0 18                     
G 2  22017218.629   115701265.858        1251.859          46.000  
G 4  22154827.242   116424404.175        -818.664          46.000  
G 9  21015883.796   110439212.928       -3974.842          46.000  
G12  19207667.140   100936970.180       -1820.386          46.000  
G14  20249937.427   106414136.545        -718.817          46.000  
G25  18996623.683    99827929.396         327.136          46.000  
G27  22651403.481   119033928.789       -3532.689          46.000  
G29  21212184.698   111470781.341        2824.964          46.000  
E 1  25239932.055   132636747.631       -3076.822          43.000  
E 7  26055966.342   136925037.604        2528.454          43.000  
E 8  22688240.409   119227518.276        1325.039          43.000  
E 9  22323245.896   117309459.255       -1173.302          43.000  
E11  27372060.298   143841155.292       -2583.543          43.000  
E19  22059295.037   115922384.920         278.634          43.000  
E20  22600437.021   118766107.840       -2157.110          43.000  
E27  24960472.123   131168176.434        2063.920          43.000  
E10  27115912.146   142495092.461        -946.026          43.000  
E21  26166634.471   137506565.816       -3379.515          43.000  
> 2019 11  1  2  3 18.9950000  0 18                     
G 2  22016979.195   115700007.322        1264.444          46.000  
G 4  22154982.828   116425221.714        -817.545          46.000  
G 9  21016638.448   110443179.151       -3957.879          46.000  
G12  19208013.300   100938789.765       -1819.360          46.000  
G14  20250075.109   106414861.108        -729.614          46.000  
G25  18996561.805    99827605.350         321.370          46.000  
G27  22652073.866   119037451.696       -3513.105          46.000  
G29  21211646.254   111467952.376        2833.843          46.000  
E 1  25240517.370   132639824.518       -3078.021          43.000  
E 7  26055484.471   136922506.722        2534.582          43.000  
E 8  22687987.416   119226189.986        1332.251          43.000  
E 9  22323468.579   117310630.392       -1169.400          43.000  
E11  27372553.528   143843748.949       -2603.265          43.000  
E19  22059242.460   115922109.594         272.180          43.000  
E20  22600846.281   118768259.552       -2146.193          43.000  
E27  24960081.412   131166122.263        2044.952          43.000  
E10  27116094.327   142496048.452        -966.385          43.000  
E21  26167275.348   137509935.378       -3359.442          43.000  
> 2019 11  1  2  3 19.9950000  0 18                     
G 2  22016737.963   115698739.947        1269.940          46.000  
G 4  22155138.955   116426042.869        -825.270          46.000  
G 9  21017390.186   110447130.173       -3944.204          46.000  
G12  19208359.914   100940611.084       -1823.126          46.000  
G14  20250214.606   106415594.949        -736.566          46.000  
G25  18996501.130    99827287.268         315.878          46.000  
G27  22652740.709   119040957.144       -3497.568          46.000  
G29  21211105.908   111465112.786        2846.689          46.000  
E 1  25241103.837   132642907.342       -3088.062          43.000  
E 7  26055000.873   136919966.907        2546.584          43.000  
E 8  22687733.253   119224853.891        1341.026          43.000  
E 9  22323691.086   117311800.323       -1170.302          43.000  
E11  27373050.702   143846361.002       -2619.281          43.000  
E19  22059191.156   115921840.846         266.235          43.000  
E20  22601253.866   118770401.591       -2137.375          43.000  
E27  24959694.105   131164086.413        2027.914          43.000  
E10  27116280.241   142497026.553        -989.026          43.000  
E21  26167913.118   137513286.964       -3343.401          43.000  
> 2019 11  1  2  3 20.9950000  0 18                     
G 2  22016496.330   115697469.883        1269.111          46.000  
G 4  22155297.089   116426874.295        -838.524          46.000  
G 9  21018139.446   110451068.668       -3933.665          46.000  
G12  19208707.312   100942436.436       -1828.143          46.000  
G14  20250354.627   106416331.793        -736.202          46.000  
G25  18996441.154    99826972.214         314.530          46.000  
G27  22653405.143   119044448.187       -3485.462          46.000  
G29  21210562.403   111462257.564        2863.941          46.000  
E 1  25241692.747   132646002.153       -3102.510          43.000  
E 7  26054514.745   136917411.309        2565.024          43.000  
E 8  22687477.154   119223507.014        1352.677          43.000  
E 9  22323913.751   117312971.850       -1173.277          43.000  
E11  27373549.866   143848984.668       -2626.847          43.000  
E19  22059140.829   115921575.751         264.261          43.000  
E20  22601659.531   118772534.840       -2129.562          43.000  
E27  24959309.118   131162063.595        2018.386          43.000  
E10  27116469.925   142498025.232       -1007.860          43.000  
E21  26168547.852   137516623.812       -3331.131          43.000  
> 2019 11  1  2  3 21.9950000  0 18                     
G 2  22016255.377   115696204.519        1261.179          46.000  
G 4  22155458.189   116427721.907        -856.535          46.000  
G 9  21018887.850   110455000.159       -3929.403          46.000  
G12  19209055.968   100944268.407       -1835.364          46.000  
G14  20250494.229   106417065.836        -730.481          46.000  
G25  18996381.457    99826657.709         315.845          46.000  
G27  22654067.763   119047931.071       -3480.582          46.000  
G29  21210015.967   111459385.029        2881.517          46.000  
E 1  25242284.554   132649114.026       -3121.055          43.000  
E 7  26054024.569   136914836.387        2585.373          43.000  
E 8  22687218.856   119222148.987        1363.707          43.000  
E 9  22324137.794   117314148.462       -1179.639          43.000  
E11  27374049.919   143851612.217       -2626.229          43.000  
E19  22059090.189   115921311.684         265.078          43.000  
E20  22602064.219   118774662.498       -2125.695          43.000  
E27  24958925.126   131160047.337        2015.882          43.000  
E10  27116663.588   142499040.599       -1021.309          43.000  
E21  26169181.662   137519952.395       -3326.521          43.000  
> 2019 11  1  2  3 22.9950000  0 18                     
G 2  22016016.850   115694949.850        1247.605          46.000  
G 4  22155623.216   116428588.431        -876.417          46.000  
G 9  21019635.697   110458930.555       -3932.042          46.000  
G12  19209405.653   100946107.800       -1843.414          46.000  
G14  20250632.382   106417791.005        -719.366          46.000  
G25  18996321.375    99826340.481         319.235          46.000  
G27  22654730.802   119051412.534       -3483.229          46.000  
G29  21209466.181   111456495.527        2896.997          46.000  
E 1  25242880.426   132652244.537       -3139.918          43.000  
E 7  26053530.815   136912240.917        2605.001          43.000  
E 8  22686958.185   119220780.467        1372.777          43.000  
E 9  22324362.955   117315332.116       -1187.840          43.000  
E11  27374549.379   143854234.530       -2617.150          43.000  
E19  22059039.513   115921045.146         268.639          43.000  
E20  22602468.471   118776787.867       -2125.750          43.000  
E27  24958540.924   131158029.356        2021.208          43.000  
E10  27116859.065   142500065.441       -1027.167          43.000  
E21  26169814.878   137523279.640       -3329.329          43.000  
> 2019 11  1  2  3 23.9950000  0 18                     
G 2  22015781.377   115693711.751        1229.428          46.000  
G 4  22155792.169   116429475.201        -895.885          46.000  
G 9  21020385.027   110462867.456       -3941.563          46.000  
G12  19209757.519   100947955.792       -1851.508          46.000  
G14  20250768.145   106418504.271        -705.888          46.000  
G25  18996260.108    99826019.187         324.255          46.000  
G27  22655394.590   119054901.090       -3493.833          46.000  
G29  21208913.899   111453593.619        2906.809          46.000  
E 1  25243479.841   132655393.886       -3157.389          44.000  
E 7  26053033.920   136909628.391        2619.925          44.000  
E 8  22686696.868   119219405.340        1377.711          44.000  
E 9  22324590.470   117316525.193       -1197.391          43.000  
E11  27375045.960   143856844.872       -2601.551          44.000  
E19  22058988.315   115920774.557         273.757          43.000  
E20  22602873.543   118778916.190       -2130.631          44.000  
E27  24958155.781   131156003.146        2032.912          44.000  
E10  27117054.420   142501092.607       -1025.093          44.000  
E21  26170449.804   137526614.282       -3340.057          43.000  
> 2019 11  1  2  3 24.9950000  0 18                     
G 2  22015549.481   115692491.942        1210.210          46.000  
G 4  22155964.385   116430378.840        -910.940          46.000  
G 9  21021136.608   110466815.922       -3956.051          46.000  
G12  19210110.327   100949810.702       -1857.861          46.000  
G14  20250901.098   106419203.017        -691.765          46.000  
G25  18996197.968    99825691.666         330.461          46.000  
G27  22656060.648   119058402.563       -3509.941          46.000  
G29  21208360.570   111450684.270        2910.368          46.000  
E 1  25244082.170   132658557.714       -3169.866          44.000  
E 7  26052534.599   136907003.448        2628.527          44.000  
E 8  22686434.556   119218026.979        1378.130          44.000  
E 9  22324819.243   117317727.104       -1206.338          44.000  
E11  27375539.243   143859436.907       -2582.146          44.000  
E19  22058935.597   115920497.461         280.347          44.000  
E20  22603280.168   118781050.708       -2139.166          44.000  
E27  24957767.583   131153961.933        2049.757          44.000  
E10  27117248.676   142502113.066       -1014.945          44.000  
E21  26171086.824   137529962.295       -3356.826          44.000  
> 2019 11  1  2  3 25.9950000  0 18                     
G 2  22015321.023   115691291.041        1192.485          46.000  
G 4  22156138.888   116431295.189        -920.384          46.000  
G 9  21021890.963   110470780.949       -3973.922          46.000  
G12  19210464.323   100951671.515       -1862.805          46.000  
G14  20251031.486   106419888.707        -679.743          46.000  
G25  18996134.414    99825358.505         336.037          46.000  
G27  22656730.544   119061922.501       -3529.887          46.000  
G29  21207806.962   111447775.408        2906.317          46.000  
E 1  25244686.262   132661731.124       -3175.794          44.000  
E 7  26052034.494   136904374.446        2628.294          44.000  
E 8  22686172.593   119216651.078        1373.136          44.000  
E 9  22325049.621   117318937.647       -1214.216          44.000  
E11  27376028.512   143862008.848       -2561.604          44.000  
E19  22058881.554   115920214.216         286.294          44.000  
E20  22603688.607   118783195.442       -2150.514          44.000  
E27  24957375.581   131151903.075        2068.291          44.000  
E10  27117440.611   142503120.669        -999.373          44.000  
E21  26171727.788   137533329.269       -3377.240          44.000  
> 2019 11  1  2  3 26.9950000  0 18                     
G 2  22015095.531   115690105.170        1180.803          46.000  
G 4  22156314.140   116432216.516        -920.615          46.000  
G 9  21022648.669   110474763.345       -3990.247          46.000  
G12  19210819.051   100953534.705       -1862.598          46.000  
G14  20251160.042   106420563.393        -669.997          46.000  
G25  18996070.023    99825019.614         342.060          46.000  
G27  22657404.262   119065461.923       -3548.200          46.000  
G29  21207254.662   111444873.285        2897.503          46.000  
E 1  25245290.668   132664906.124       -3172.616          44.000  
E 7  26051534.964   136901748.696        2622.307          44.000  
E 8  22685912.131   119215281.317        1366.094          44.000  
E 9  22325280.853   117320153.644       -1216.927          44.000  
E11  27376514.169   143864560.591       -2541.821          44.000  
E19  22058826.568   115919924.543         293.296          44.000  
E20  22604098.879   118785351.237       -2160.758          44.000  
E27  24956980.264   131149825.087        2087.880          44.000  
E10  27117628.480   142504109.676        -977.980          44.000  
E21  26172372.172   137536716.193       -3396.132          44.000  
> 2019 11  1  2  3 27.9950000  0 18                     
G 2  22014871.435   115688928.221        1174.121          46.000  
G 4  22156488.730   116433134.545        -914.440          46.000  
G 9  21023409.272   110478761.337       -4005.246          46.000  
G12  19211173.203   100955396.563       -1860.724          46.000  
G14  20251287.062   106421231.052        -666.474          46.000  
G25  18996004.480    99824675.979         344.787          46.000  
G27  22658080.947   119069018.939       -3565.080          46.000  
G29  21206704.736   111441983.277        2882.048          46.000  
E 1  25245893.311   132668074.592       -3163.410          44.000  
E 7  26051036.865   136899133.212        2607.781          44.000  
E 8  22685653.414   119213920.639        1354.671          44.000  
E 9  22325512.697   117321371.298       -1217.697          44.000  
E11  27376996.703   143867095.337       -2528.647          44.000  
E19  22058770.379   115919629.376         296.861          44.000  
E20  22604511.001   118787517.360       -2171.313          44.000  
E27  24956581.282   131147729.629        2102.280          44.000  
E10  27117812.859   142505077.556        -957.881          44.000  
E21  26173019.889   137540121.036       -3413.129          44.000  
> 2019 11  1  2  3 28.9950000  0 18                     
G 2  22014648.474   115687754.633        1174.501          46.000  
G 4  22156661.609   116434043.496        -902.412          46.000  
G 9  21024172.806   110482772.594       -4015.916          46.000  
G12  19211527.704   100957255.497       -1856.488          46.000  
G14  20251414.361   106421898.782        -669.532          46.000  
G25  18995939.041    99824331.281         344.596          46.000  
G27  22658760.668   119072590.768       -3576.991          46.000  
G29  21206158.003   111439110.730        2863.329          46.000  
E 1  25246494.070   132671231.360       -3148.938          44.000  
E 7  26050542.413   136896535.213        2588.189          44.000  
E 8  22685396.914   119212572.421        1342.053          44.000  
E 9  22325744.052   117322588.442       -1215.494          44.000  
E11  27377477.177   143869620.872       -2523.249          44.000  
E19  22058713.875   115919332.440         297.202          44.000  
E20  22604925.095   118789693.353       -2179.756          44.000  
E27  24956180.503   131145623.019        2110.260          44.000  
E10  27117993.451   142506027.008        -941.247          44.000  
E21  26173670.643   137543540.841       -3424.993          44.000  
> 2019 11  1  2  3 29.9950000  0 18                     
G 2  22014423.959   115686576.202        1183.052          46.000  
G 4  22156831.836   116434936.916        -884.402          46.000  
G 9  21024937.317   110486790.574       -4019.044          46.000  
G12  19211879.884   100959108.238       -1849.091          46.000  
G14  20251542.411   106422571.564        -677.128          46.000  
G25  18995873.708    99823987.219         343.043          46.000  
G27  22659442.099   119076170.113       -3580.495          46.000  
G29  21205614.848   111436256.102        2846.038          46.000  
E 1  25247091.321   132674370.909       -3130.105          44.000  
E 7  26050052.009   136893956.984        2568.237          44.000  
E 8  22685142.367   119211235.974        1331.053          44.000  
E 9  22325974.988   117323800.883       -1209.120          44.000  
E11  27377957.407   143872144.310       -2525.207          44.000  
E19  22058657.319   115919035.567         296.154          44.000  
E20  22605340.428   118791875.068       -2183.169          44.000  
E27  24955778.520   131143511.156        2111.907          44.000  
E10  27118171.042   142506961.512        -928.933          44.000  
E21  26174322.827   137546968.106       -3428.511          44.000  
> 2019 11  1  2  3 30.9950000  0 18                     
G 2  22014197.525   115685386.462        1197.261          46.000  
G 4  22156998.119   116435811.866        -865.402          46.000  
G 9  21025702.318   110490808.610       -4015.522          46.000  
G12  19212231.018   100960953.467       -1840.845          46.000  
G14  20251672.467   106423254.611        -689.265          46.000  
G25  18995808.514    99823646.389         338.758          46.000  
G27  22660123.093   119079749.461       -3576.693          46.000  
G29  21205074.921   111433418.002        2831.087          46.000  
E 1  25247685.483   132677491.393       -3110.798          44.000  
E 7  26049565.253   136891398.667        2549.438          44.000  
E 8  22684889.845   119209909.722        1322.315          44.000  
E 9  22326204.563   117325006.132       -1200.865          44.000  
E11  27378438.649   143874674.043       -2535.239          44.000  
E19  22058601.339   115918741.595         291.932          44.000  
E20  22605755.882   118794058.412       -2182.385          44.000  
E27  24955377.287   131141401.685        2105.957          44.000  
E10  27118347.028   142507887.931        -924.674          44.000  
E21  26174974.837   137550395.064       -3423.888          44.000  
> 2019 11  1  2  3 31.9950000  0 18                     
G 2  22013967.985   115684180.255        1215.395          46.000  
G 4  22157160.982   116436667.823        -847.149          46.000  
G 9  21026465.363   110494819.515       -4005.134          46.000  
G12  19212580.720   100962790.564       -1833.124          46.000  
G14  20251804.810   106423951.064        -703.764          46.000  
G25  18995744.524    99823310.358         333.261          46.000  
G27  22660802.640   119083320.733       -3564.886          46.000  
G29  21204537.000   111430591.874        2821.928          46.000  
E 1  25248275.824   132680593.449       -3093.930          44.000  
E 7  26049081.306   136888856.649        2535.491          44.000  
E 8  22684638.457   119208589.936        1317.964          44.000  
E 9  22326432.358   117326202.367       -1191.625          44.000  
E11  27378922.788   143877216.953       -2551.634          44.000  
E19  22058546.318   115918452.347         286.197          44.000  
E20  22606171.006   118796238.541       -2177.290          44.000  
E27  24954977.538   131139301.346        2093.904          44.000  
E10  27118523.467   142508813.910        -928.558          44.000  
E21  26175625.486   137553813.489       -3411.962          44.000  
> 2019 11  1  2  3 32.9950000  0 18                     
G 2  22013734.920   115682956.077        1233.709          46.000  
G 4  22157321.227   116437508.386        -834.054          46.000  
G 9  21027226.158   110498818.262       -3990.667          46.000  
G12  19212929.009   100964621.188       -1827.374          46.000  
G14  20251940.276   106424663.016        -719.019          46.000  
G25  18995682.087    99822980.977         326.470          46.000  
G27  22661479.551   119086878.156       -3548.298          46.000  
G29  21204000.580   111427772.331        2819.007          46.000  
E 1  25248863.425   132683681.600       -3082.412          44.000  
E 7  26048599.802   136886325.759        2528.271          44.000  
E 8  22684388.082   119207272.948        1317.686          44.000  
E 9  22326658.286   117327390.173       -1183.170          44.000  
E11  27379410.068   143879778.827       -2571.690          44.000  
E19  22058492.851   115918169.927         279.444          44.000  
E20  22606584.331   118798412.078       -2168.476          44.000  
E27  24954580.667   131137216.434        2076.519          44.000  
E10  27118700.796   142509748.167        -940.080          44.000  
E21  26176273.605   137557217.433       -3394.401          44.000  
> 2019 11  1  2  3 33.9950000  0 18                     
G 2  22013498.400   115681714.121        1249.394          46.000  
G 4  22157479.099   116438338.463        -827.742          46.000  
G 9  21027983.951   110502800.581       -3974.043          46.000  
G12  19213276.251   100966446.907       -1824.719          46.000  
G14  20252078.290   106425389.031        -732.747          46.000  
G25  18995620.697    99822657.925         319.533          46.000  
G27  22662153.060   119090416.962       -3529.347          46.000  
G29  21203463.882   111424951.790        2822.706          46.000  
E 1  25249449.194   132686761.445       -3078.686          44.000  
E 7  26048118.874   136883797.897        2528.537          44.000  
E 8  22684137.025   119205953.466        1321.825          44.000  
E 9  22326882.818   117328570.414       -1177.621          44.000  
E11  27379901.605   143882361.363       -2593.216          44.000  
E19  22058439.941   115917894.265         271.848          44.000  
E20  22606996.087   118800575.628       -2158.568          44.000  
E27  24954187.601   131135149.608        2056.825          44.000  
E10  27118881.685   142510697.059        -958.385          44.000  
E21  26176917.465   137560602.120       -3374.796          44.000  
> 2019 11  1  2  3 34.9950000  0 18                     
G 2  22013259.541   115680458.078        1261.649          46.000  
G 4  22157636.587   116439165.354        -827.598          46.000  
G 9  21028738.359   110506765.428       -3956.078          46.000  
G12  19213623.301   100968270.676       -1823.407          46.000  
G14  20252218.677   106426126.157        -740.953          46.000  
G25  18995560.284    99822340.542         315.292          46.000  
G27  22662822.642   119093935.948       -3509.111          46.000  
G29  21202925.630   111422123.454        2834.552          46.000  
E 1  25250035.242   132689840.464       -3080.873          44.000  
E 7  26047636.969   136881265.109        2538.034          44.000  
E 8  22683884.730   119204627.287        1330.978          44.000  
E 9  22327106.268   117329745.755       -1173.761          44.000  
E11  27380396.651   143884963.582       -2610.645          44.000  
E19  22058389.004   115917624.826         266.907          44.000  
E20  22607405.190   118802727.963       -2146.569          44.000  
E27  24953798.217   131133101.296        2039.901          44.000  
E10  27119066.169   142511665.248        -978.114          44.000  
E21  26177557.260   137563966.409       -3354.332          44.000  
> 2019 11  1  2  3 35.9950000  0 18                     
G 2  22013019.025   115679194.038        1265.632          46.000  
G 4  22157794.826   116439997.049        -836.429          46.000  
G 9  21029489.922   110510714.707       -3942.567          46.000  
G12  19213970.874   100970096.001       -1827.234          46.000  
G14  20252360.093   106426869.899        -745.062          46.000  
G25  18995500.639    99822027.430         311.680          46.000  
G27  22663488.944   119097437.159       -3493.545          46.000  
G29  21202384.900   111419281.944        2849.521          46.000  
E 1  25250622.669   132692926.436       -3091.768          44.000  
E 7  26047152.446   136878720.306        2552.799          44.000  
E 8  22683630.603   119203291.406        1341.455          44.000  
E 9  22327329.666   117330919.828       -1174.607          44.000  
E11  27380894.837   143887581.557       -2623.777          44.000  
E19  22058338.660   115917360.265         262.864          44.000  
E20  22607812.617   118804869.778       -2137.022          44.000  
E27  24953411.433   131131069.131        2025.701          44.000  
E10  27119254.474   142512654.564        -999.473          44.000  
E21  26178193.949   137567312.446       -3338.245          44.000  
> 2019 11  1  2  3 36.9950000  0 18                     
G 2  22012778.491   115677929.010        1263.510          46.000  
G 4  22157955.281   116440840.512        -850.862          46.000  
G 9  21030239.287   110514652.397       -3933.404          46.000  
G12  19214319.093   100971925.721       -1832.391          46.000  
G14  20252501.702   106427614.451        -742.839          46.000  
G25  18995441.536    99821716.221         311.397          46.000  
G27  22664152.575   119100925.134       -3483.259          46.000  
G29  21201840.819   111416423.579        2867.628          46.000  
E 1  25251212.225   132696025.659       -3107.271          44.000  
E 7  26046664.660   136876157.943        2572.562          44.000  
E 8  22683373.735   119201944.004        1353.565          44.000  
E 9  22327553.413   117332096.132       -1178.170          44.000  
E11  27381394.716   143890208.541       -2628.625          44.000  
E19  22058289.049   115917098.147         262.156          44.000  
E20  22608218.719   118807003.137       -2129.830          44.000  
E27  24953026.411   131129047.826        2018.323          44.000  
E10  27119446.548   142513663.143       -1016.454          44.000  
E21  26178828.160   137570644.963       -3327.628          44.000  
> 2019 11  1  2  3 37.9950000  0 18                     
G 2  22012538.934   115676670.332        1253.243          46.000  
G 4  22158118.859   116441700.981        -870.395          46.000  
G 9  21030987.884   110518584.415       -3931.663          46.000  
G12  19214668.446   100973762.151       -1840.649          46.000  
G14  20252642.577   106428353.976        -735.645          46.000  
G25  18995382.222    99821404.314         312.776          46.000  
G27  22664815.247   119104406.501       -3480.919          46.000  
G29  21201293.598   111413547.470        2884.226          46.000  
E 1  25251805.375   132699142.426       -3126.632          44.000  
E 7  26046173.594   136873575.293        2592.454          44.000  
E 8  22683115.263   119200585.220        1363.613          44.000  
E 9  22327778.451   117333277.935       -1185.700          44.000  
E11  27381894.926   143892836.412       -2625.851          44.000  
E19  22058238.863   115916835.715         263.251          44.000  
E20  22608623.651   118809131.462       -2127.552          44.000  
E27  24952642.437   131127030.431        2017.418          44.000  
E10  27119641.066   142514686.246       -1028.707          44.000  
E21  26179461.306   137573970.837       -3325.414          44.000  
> 2019 11  1  2  3 38.9950000  0 18                     
G 2  22012301.908   115675425.779        1235.953          46.000  
G 4  22158286.835   116442582.562        -892.088          46.000  
G 9  21031736.603   110522519.054       -3937.902          46.000  
G12  19215019.807   100975607.979       -1850.342          46.000  
G14  20252781.900   106429085.019        -725.181          46.000  
G25  18995322.508    99821090.755         315.247          46.000  
G27  22665478.269   119107890.429       -3487.527          46.000  
G29  21200743.358   111410656.960        2896.655          46.000  
E 1  25252402.399   132702279.691       -3146.896          44.000  
E 7  26045678.531   136870974.266        2609.595          44.000  
E 8  22682855.220   119199218.432        1370.006          44.000  
E 9  22328005.007   117334469.107       -1196.068          44.000  
E11  27382394.125   143895458.421       -2616.259          44.000  
E19  22058188.711   115916571.775         265.909          44.000  
E20  22609028.932   118811260.498       -2130.616          44.000  
E27  24952258.131   131125010.806        2023.485          44.000  
E10  27119837.660   142515718.270       -1033.664          44.000  
E21  26180094.574   137577299.438       -3332.280          44.000  
> 2019 11  1  2  3 39.9950000  0 18                     
G 2  22012068.529   115674198.638        1218.170          46.000  
G 4  22158458.179   116443483.756        -909.567          46.000  
G 9  21032486.892   110526461.877       -3948.360          46.000  
G12  19215372.301   100977462.161       -1857.660          46.000  
G14  20252918.465   106429803.215        -710.550          46.000  
G25  18995261.886    99820772.532         321.379          46.000  
G27  22666142.773   119111383.381       -3499.212          46.000  
G29  21200191.163   111407755.392        2905.594          46.000  
E 1  25253002.687   132705434.894       -3162.554          44.000  
E 7  26045180.572   136868357.374        2623.368          44.000  
E 8  22682594.007   119197846.004        1374.401          44.000  
E 9  22328233.692   117335669.790       -1205.007          44.000  
E11  27382890.025   143898066.409       -2598.730          44.000  
E19  22058137.302   115916303.060         271.976          44.000  
E20  22609435.173   118813393.578       -2136.021          44.000  
E27  24951872.079   131122980.889        2037.454          44.000  
E10  27120034.219   142516749.991       -1028.338          44.000  
E21  26180729.623   137580637.418       -3344.444          44.000  
> 2019 11  1  2  3 40.9950000  0 16                     
G 2  22011838.570   115672990.992        1197.819          46.000  
G 4  22158633.065   116444401.550        -924.511          46.000  
G 9  21033239.747   110530418.670       -3965.375          46.000  
G12  19215726.628   100979323.801       -1864.923          46.000  
G14  20253052.431   106430507.780        -698.228          46.000  
G25  18995200.391    99820448.893         326.188          46.000  
G27  22666810.628   119114891.824       -3517.990          46.000  
G29  21199638.567   111404849.352        2905.701          46.000  
E 8  22682332.411   119196472.706        1371.914          44.000  
E 9  22328463.983   117336880.090       -1214.964          44.000  
E11  27383382.872   143900655.919       -2579.613          44.000  
E19  22058085.248   115916028.546         277.462          44.000  
E20  22609842.392   118815534.867       -2146.661          44.000  
E27  24951482.748   131120935.649        2053.815          44.000  
E10  27120228.964   142517773.733       -1017.656          44.000  
E21  26181367.777   137583991.347       -3363.645          44.000  
> 2019 11  1  2  3 41.9950000  0 18                     
G 2  22011612.398   115671801.559        1181.815          46.000  
G 4  22158809.364   116445330.075        -931.217          46.000  
G 9  21033996.144   110534392.717       -3982.779          46.000  
G12  19216081.757   100981190.603       -1868.127          46.000  
G14  20253184.180   106431199.865        -686.453          46.000  
G25  18995137.797    99820119.695         332.011          46.000  
G27  22667481.850   119118419.522       -3537.507          46.000  
G29  21199085.814   111401945.830        2900.327          46.000  
E 1  25254206.455                1      -3177.333          43.000  
E 7  26044179.836                1       2626.625          44.000  
E 8  22682072.071   119195103.159        1366.625          44.000  
E 9  22328695.948   117338098.370       -1220.990          44.000  
E11  27383871.600   143903225.148       -2558.880          44.000  
E19  22058031.763   115915747.902         283.845          44.000  
E20  22610252.280   118817686.998       -2157.729          44.000  
E27  24951089.856   131118872.203        2073.065          44.000  
E10  27120420.881   142518782.828        -999.756          44.000  
