     3.03           OBSERVATION DATA    M: Mixed            RINEX VERSION / TYPE
RTKCONV 2.4.3 b33   MKJ                 20191113 084949 UTC PGM / RUN BY / DATE 
Receiver                                           	        MARKER NAME               
XXXXXX                                                      MARKER TYPE         
                                         GSA                OBSERVER / AGENCY   
                                                            REC # / TYPE / VERS
                                                            ANT # / TYPE        
  2894067.9428  1321675.3317  5509485.4207                  APPROX POSITION XYZ 
        0.0000        0.0000        0.0000                  ANTENNA: DELTA H/E/N
G    4 C1C L1C D1C S1C                                      SYS / # / OBS TYPES 
E    4 C1C L1C D1C S1C                                      SYS / # / OBS TYPES 
S    4 C1C L1C D1C S1C                                      SYS / # / OBS TYPES 
  2019    11    12    13    35   28.9920000     GPS         TIME OF FIRST OBS   
  2019    11    12    14     3   22.9920000     GPS         TIME OF LAST OBS    
G                                                           SYS / PHASE SHIFT   
E                                                           SYS / PHASE SHIFT   
S                                                           SYS / PHASE SHIFT   
                                                            END OF HEADER       
> 2019 11 12 13 35 28.9920000  0 19                     
G 9  18227960.804    95788578.0151      -1680.155          52.000  
G 4  17967478.525    94419732.8951       -991.292          48.000  
G 7  19082074.328   100276969.6681       1730.251          50.000  
G 2  20971645.775   110206743.052       -1737.852          42.000  
G23  20029677.420   105256677.3201      -2903.768          44.000  
G16  20236582.104   106343963.685       -1060.603          38.000  
G 6  21884785.986   115005306.1751      -3769.802          37.000  
E19  21332203.236   112101492.177       -1471.978          42.000  
S23  37022286.565   194553426.4711       -257.650          38.000  
E 4  22171445.676   116511746.840        1540.944          44.000  
E21  22477354.109   118119307.301        1441.967          44.000  
E27  22920503.462   120448053.447       -1561.855          42.000  
E36  24068593.344                3         52.240          21.000  
E 1  25308306.789   132996021.298        3097.302          35.000  
S36  37191164.694   195440892.497        -257.704          38.000  
G26  21767563.581   114389290.200       -2776.818          33.000  
G 5  20704804.461   108804478.041        2838.262          44.000  
G30  21033307.969   110530794.0281       3257.395          43.000  
G29  22243273.304   116889180.3921      -1697.318          37.000  
> 2019 11 12 13 35 29.9920000  0 19                     
G 9  18228280.527    95790258.324       -1680.605          52.000  
G 4  17967667.319    94420724.357        -991.671          47.000  
G 7  19081744.990   100275239.548        1729.858          50.000  
G 2  20971976.526   110208480.991       -1738.413          42.000  
G23  20030230.426   105259581.213       -2904.208          44.000  
G16  20236783.924   106345024.692       -1061.577          38.000  
G 6  21885503.338   115009076.011       -3769.736          38.000  
E19  21332483.364   112102964.239       -1472.180          42.000  
S23  37022335.513   194553684.108        -257.350          38.000  
E 4  22171152.372   116510206.114        1540.621          44.000  
E21  22477079.748   118117865.591        1441.406          44.000  
E27  22920800.935   120449615.751       -1562.490          42.000  
E36  24068583.746                3         54.221          20.000  
E 1  25307717.321   132992924.041        3097.081          35.000  
S36  37191213.581   195441150.280        -257.718          38.000  
G26  21768092.079   114392066.553       -2776.541          33.000  
G 5  20704264.395   108801639.872        2838.092          44.000  
G30  21032688.085   110527536.676        3257.349          43.000  
G29  22243596.281   116890877.957       -1698.167          37.000  
> 2019 11 12 13 35 30.9920000  0 19                     
G 9  18228600.477    95791938.923       -1680.694          52.000  
G 4  17967855.833    94421716.135        -991.913          47.000  
G 7  19081415.835   100273509.689        1729.785          50.000  
G 2  20972307.086   110210219.246       -1738.316          42.000  
G23  20030783.397   105262485.197       -2904.091          44.000  
G16  20236986.015   106346086.237       -1061.781          38.000  
G 6  21886220.830   115012845.839       -3769.655          38.000  
E19  21332763.475   112104436.442       -1472.340          42.000  
S23  37022384.522   194553941.573        -257.126          38.000  
E 4  22170859.069   116508665.444        1540.577          44.000  
E21  22476805.509   118116424.107        1441.422          44.000  
E27  22921098.182   120451178.297       -1562.596          42.000  
E36  24068573.991                3         55.495          20.000  
E 1  25307127.355   132989826.636        3097.449          35.000  
S36  37191262.625   195441407.743        -257.275          38.000  
G26  21768620.410   114394843.265       -2776.725          33.000  
G 5  20703724.031   108798801.870        2837.746          43.000  
G30  21032068.445   110524279.345        3257.268          43.000  
G29  22243919.407   116892575.938       -1698.330          37.000  
> 2019 11 12 13 35 31.9920000  0 19                     
G 9  18228920.366    95793619.919       -1681.222          52.000  
G 4  17968044.549    94422708.331        -992.473          47.000  
G 7  19081086.602   100271780.192        1729.252          50.000  
G 2  20972638.029   110211957.925       -1738.579          42.000  
G23  20031336.272   105265389.373       -2904.304          44.000  
G16  20237188.237   106347148.430       -1062.585          38.000  
G 6  21886937.938   115016615.779       -3770.051          37.000  
E19  21333043.892   112105908.848       -1472.522          42.000  
S23  37022433.670   194554198.939        -257.164          38.000  
E 4  22170566.289   116507124.922        1540.401          44.000  
E21  22476531.418   118114982.965        1441.127          44.000  
E27  22921395.604   120452741.191       -1562.953          41.000  
E36  24068565.886                3         54.832          21.000  
E 1  25306538.123   132986729.212        3097.755          35.000  
S36  37191311.503   195441665.067        -257.362          38.000  
G26  21769148.759   114397620.351       -2777.346          33.000  
G 5  20703184.226   108795964.113        2837.620          44.000  
G30  21031448.299   110521022.130        3257.165          43.000  
G29  22244242.594   116894274.406       -1698.788          37.000  
> 2019 11 12 13 35 32.9920000  0 19                     
G 9  18229240.211    95795301.341       -1681.432          52.000  
G 4  17968233.674    94423700.972        -992.687          47.000  
G 7  19080757.953   100270051.096        1729.111          50.000  
G 2  20972969.208   110213697.113       -1739.543          42.000  
G23  20031888.772   105268293.797       -2904.362          44.000  
G16  20237390.494   106348211.307       -1062.889          38.000  
G 6  21887655.404   115020385.851       -3769.960          37.000  
E19  21333323.933   112107381.533       -1472.716          42.000  
S23  37022482.976   194554456.262        -256.956          38.000  
E 4  22170273.117   116505584.604        1540.468          44.000  
E21  22476257.197   118113542.220        1440.725          44.000  
E27  22921693.287   120454304.500       -1563.368          42.000  
E36  24068557.196                3         45.964          21.000  
E 1  25305948.759   132983631.827        3097.737          35.000  
S36  37191360.320   195441922.337        -257.120          38.000  
G26  21769677.291   114400397.851       -2776.947          33.000  
G 5  20702644.194   108793126.667        2837.332          44.000  
G30  21030828.598   110517765.071        3257.327          43.000  
G29  22244566.191   116895973.449       -1698.777          37.000  
> 2019 11 12 13 35 33.9920000  0 19                     
G 9  18229560.073    95796983.128       -1681.800          52.000  
G 4  17968422.538    94424694.004        -993.105          47.000  
G 7  19080428.729   100268322.342        1728.706          50.000  
G 2  20973300.212   110215436.648       -1739.637          42.000  
G23  20032441.386   105271198.378       -2904.500          44.000  
G16  20237592.672   106349274.804       -1063.905          38.000  
G 6  21888372.660   115024155.965       -3769.626          37.000  
E19  21333603.887   112108854.379       -1472.605          42.000  
S23  37022531.959   194554713.447        -256.469          38.000  
E 4  22169979.945   116504044.393        1540.361          44.000  
E21  22475983.080   118112101.763        1440.440          44.000  
E27  22921991.346   120455868.106       -1563.539          42.000  
E36  24068547.554                3         47.829          21.000  
E 1  25305358.976   132980534.387        3097.412          35.000  
S36  37191409.521   195442179.522        -257.409          38.000  
G26  21770205.754   114403175.748       -2778.562          33.000  
G 5  20702104.581   108790289.431        2837.328          43.000  
G30  21030209.211   110514508.101        3257.469          43.000  
G29  22244889.587   116897672.939       -1699.262          37.000  
> 2019 11 12 13 35 34.9920000  0 19                     
G 9  18229880.101    95798665.367       -1682.386          52.000  
G 4  17968611.646    94425687.512        -993.902          47.000  
G 7  19080099.845   100266594.013        1728.024          50.000  
G 2  20973631.514   110217176.681       -1740.334          42.000  
G23  20032994.392   105274103.215       -2904.898          45.000  
G16  20237794.920   106350338.990       -1064.479          38.000  
G 6  21889089.821   115027926.276       -3770.402          37.000  
E19  21333883.867   112110327.547       -1473.303          42.000  
S23  37022580.714   194554970.663        -257.332          38.000  
E 4  22169687.043   116502504.421        1539.790          44.000  
E21  22475708.580   118110661.720        1439.762          44.000  
E27  22922288.584   120457432.150       -1564.272          42.000  
E36  24068532.425                3         55.156          21.000  
E 1  25304769.656   132977436.968        3097.309          35.000  
S36  37191458.591   195442436.641        -257.197          38.000  
G26  21770734.399   114405954.019       -2778.620          33.000  
G 5  20701564.610   108787452.545        2836.605          44.000  
G30  21029589.554   110511251.330        3256.731          43.000  
G29  22245212.974   116899373.036       -1700.564          37.000  
> 2019 11 12 13 35 35.9920000  0 19                     
G 9  18230200.208    95800347.967       -1682.888          52.000  
G 4  17968800.902    94426681.406        -994.262          47.000  
G 7  19079771.170   100264866.018        1727.845          50.000  
G 2  20973963.033   110218917.128       -1740.754          42.000  
G23  20033547.302   105277008.234       -2905.123          45.000  
G16  20237997.840   106351403.807       -1065.103          38.000  
G 6  21889807.068   115031696.632       -3770.288          37.000  
E19  21334164.248   112111800.894       -1473.484          42.000  
S23  37022629.296   194555227.683        -257.021          38.000  
E 4  22169393.643   116500964.572        1539.765          44.000  
E21  22475435.108   118109221.983        1439.611          44.000  
E27  22922586.293   120458996.515       -1564.736          42.000  
E36  24068519.459                3         41.548          21.000  
E 1  25304180.284   132974339.499        3097.571          35.000  
S36  37191507.242   195442693.585        -256.761          38.000  
G26  21771263.158   114408732.687       -2778.684          33.000  
G 5  20701024.482   108784615.877        2836.398          44.000  
G30  21028970.010   110507994.648        3256.671          43.000  
G29  22245536.763   116901073.571       -1700.570          37.000  
> 2019 11 12 13 35 36.9920000  0 19                     
G 9  18230520.498    95802030.950       -1683.328          52.000  
G 4  17968990.220    94427675.694        -994.609          47.000  
G 7  19079442.355   100263138.375        1727.389          50.000  
G 2  20974294.316   110220657.962       -1741.086          42.000  
G23  20034100.299   105279913.439       -2905.363          45.000  
G16  20238200.742   106352469.246       -1065.593          38.000  
G 6  21890524.455   115035467.066       -3770.378          37.000  
E19  21334444.176   112113274.445       -1473.556          42.000  
S23  37022678.314   194555484.596        -256.687          38.000  
E 4  22169100.619   116499424.866        1539.530          44.000  
E21  22475161.323   118107782.577        1439.225          44.000  
E27  22922884.046   120460561.202       -1564.780          42.000  
E36  24068510.324                3         45.396          21.000  
E 1  25303590.859   132971242.006        3097.812          35.000  
S36  37191556.068   195442950.391        -256.432          38.000  
G26  21771791.830   114411511.739       -2779.493          33.000  
G 5  20700484.590   108781779.450        2836.259          44.000  
G30  21028350.475   110504738.068        3256.531          43.000  
G29  22245860.849   116902774.636       -1701.395          37.000  
> 2019 11 12 13 35 37.9920000  0 19                     
G 9  18230840.893    95803714.625       -1683.950          52.000  
G 4  17969179.415    94428670.700        -995.280          47.000  
G 7  19079113.506   100261411.395        1726.705          50.000  
G 2  20974625.801   110222399.541       -1742.057          42.000  
G23  20034653.253   105282819.135       -2905.958          45.000  
G16  20238403.898   106353535.654       -1066.947          38.000  
G 6  21891242.418   115039237.903       -3770.919          37.000  
E19  21334724.670   112114748.526       -1474.279          42.000  
S23  37022727.235   194555741.708        -256.694          38.000  
E 4  22168807.892   116497885.615        1539.107          44.000  
E21  22474887.852   118106343.807        1438.583          44.000  
E27  22923181.896   120462126.568       -1565.503          42.000  
E36  24068499.767                3         46.468          22.000  
E 1  25303001.016   132968144.799        3097.306          35.000  
S36  37191605.225   195443207.422        -257.229          37.000  
G26  21772320.668   114414291.424       -2779.824          33.000  
G 5  20699945.230   108778943.590        2835.579          44.000  
G30  21027731.010   110501481.920        3255.893          44.000  
G29  22246184.821   116904476.511       -1702.722          37.000  
> 2019 11 12 13 35 38.9920000  0 19                     
G 9  18231161.183    95805398.564       -1684.009          52.000  
G 4  17969368.881    94429665.996        -995.361          47.000  
G 7  19078785.049   100259684.657        1726.562          50.000  
G 2  20974957.215   110224141.394       -1741.922          42.000  
G23  20035206.381   105285724.894       -2905.640          45.000  
G16  20238607.079   106354602.551       -1067.020          38.000  
G 6  21891959.945   115043008.723       -3770.646          37.000  
E19  21335005.104   112116222.699       -1474.149          42.000  
S23  37022776.043   194555998.605        -256.479          37.000  
E 4  22168515.200   116496346.392        1539.292          44.000  
E21  22474614.128   118104905.252        1438.504          44.000  
E27  22923479.631   120463692.162       -1565.621          41.000  
E36  24068489.148                3         50.005          22.000  
E 1  25302411.408   132965047.437        3097.294          35.000  
S36  37191653.955   195443464.258        -256.723          37.000  
G26  21772849.610   114417071.398       -2779.629          33.000  
G 5  20699406.036   108776107.862        2835.823          44.000  
G30  21027111.554   110498225.756        3256.090          43.000  
G29  22246508.705   116906178.712       -1702.202          37.000  
> 2019 11 12 13 35 39.9920000  0 19                     
G 9  18231481.630    95807082.952       -1684.866          52.000  
G 4  17969558.303    94430661.764        -996.165          47.000  
G 7  19078456.654   100257958.343        1725.878          50.000  
G 2  20975288.926   110225883.771       -1743.071          42.000  
G23  20035759.623   105288630.922       -2906.355          45.000  
G16  20238810.566   106355670.165       -1068.280          38.000  
G 6  21892677.446   115046779.686       -3771.135          37.000  
E19  21335285.651   112117697.159       -1474.856          42.000  
S23  37022824.939   194556255.485        -257.108          38.000  
E 4  22168222.385   116494807.385        1538.774          44.000  
E21  22474340.587   118103467.093        1437.812          44.000  
E27  22923777.742   120465258.166       -1566.311          41.000  
E36  24068482.622                3         46.718          22.000  
E 1  25301822.088   132961950.101        3097.052          35.000  
S36  37191702.859   195443721.123        -257.157          38.000  
G26  21773378.605   114419851.811       -2780.713          33.000  
G 5  20698866.301   108773272.462        2834.992          44.000  
G30  21026492.114   110494969.767        3255.631          43.000  
G29  22246832.765   116907881.523       -1703.361          37.000  
> 2019 11 12 13 35 40.9920000  0 19                     
G 9  18231802.435    95808767.890       -1685.360          52.000  
G 4  17969747.882    94431658.112        -996.707          47.000  
G 7  19078128.371   100256232.565        1725.253          50.000  
G 2  20975620.193   110227626.689       -1743.158          42.000  
G23  20036312.882   105291537.311       -2906.711          45.000  
G16  20239013.975   106356738.584       -1068.985          38.000  
G 6  21893395.069   115050550.904       -3771.727          37.000  
E19  21335566.286   112119172.003       -1475.253          41.000  
S23  37022873.677   194556512.388        -257.374          38.000  
E 4  22167929.535   116493268.699        1538.633          44.000  
E21  22474066.811   118102029.444        1437.273          44.000  
E27  22924076.123   120466824.686       -1566.789          41.000  
E36  24068471.829                3         54.936          22.000  
E 1  25301232.567   132958852.910        3096.952          35.000  
S36  37191751.589   195443978.142        -257.314          37.000  
G26  21773907.922   114422632.785       -2781.475          33.000  
G 5  20698326.853   108770437.471        2834.621          44.000  
G30  21025872.536   110491714.080        3255.203          44.000  
G29  22247156.894   116909585.010       -1703.889          37.000  
> 2019 11 12 13 35 41.9920000  0 19                     
G 9  18232123.100    95810453.158       -1685.739          52.000  
G 4  17969937.618    94432654.800        -997.076          48.000  
G 7  19077799.854   100254507.075        1725.011          50.000  
G 2  20975951.921   110229370.011       -1744.100          41.000  
G23  20036865.888   105294443.834       -2906.854          45.000  
G16  20239217.627   106357807.572       -1069.420          39.000  
G 6  21894112.499   115054322.155       -3771.620          37.000  
E19  21335847.034   112120646.994       -1475.248          42.000  
S23  37022922.713   194556769.153        -256.963          38.000  
E 4  22167636.721   116491730.105        1538.297          44.000  
E21  22473793.026   118100592.060        1437.102          44.000  
E27  22924373.850   120468391.493       -1567.221          42.000  
E36  24068464.125                3         40.374          22.000  
E 1  25300643.404   132955755.610        3097.430          35.000  
S36  37191800.458   195444235.019        -257.204          37.000  
G26  21774437.266   114425414.114       -2782.494          33.000  
G 5  20697787.572   108767602.685        2834.325          44.000  
G30  21025253.419   110488458.416        3255.325          44.000  
G29  22247481.084   116911288.939       -1704.726          37.000  
> 2019 11 12 13 35 42.9920000  0 19                     
G 9  18232443.704    95812139.004       -1686.128          52.000  
G 4  17970127.573    94433652.097        -997.612          48.000  
G 7  19077471.737   100252782.134        1724.673          50.000  
G 2  20976283.414   110231113.898       -1744.342          41.000  
G23  20037418.964   105297350.722       -2907.142          45.000  
G16  20239421.193   106358877.389       -1070.156          39.000  
G 6  21894830.009   115058093.663       -3771.515          37.000  
E19  21336127.938   112122122.409       -1475.746          42.000  
S23  37022971.669   194557025.996        -256.577          38.000  
E 4  22167344.220   116490191.854        1538.185          44.000  
E21  22473519.511   118099155.205        1436.638          44.000  
E27  22924671.900   120469958.850       -1567.819          41.000  
E36  24068457.258                3         41.712          22.000  
E 1  25300054.145   132952658.542        3096.867          34.000  
S36  37191849.249   195444491.972        -257.319          37.000  
G26  21774966.627   114428195.888       -2782.193          33.000  
G 5  20697248.124   108764768.334        2834.060          44.000  
G30  21024633.815   110485203.083        3255.057          43.000  
G29  22247805.475   116912993.534       -1704.842          37.000  
> 2019 11 12 13 35 43.9920000  0 19                     
G 9  18232764.710    95813825.300       -1686.580          52.000  
G 4  17970317.658    94434649.865        -998.130          48.000  
G 7  19077143.717   100251057.618        1724.280          50.000  
G 2  20976615.309   110232858.279       -1744.566          41.000  
G23  20037972.424   105300257.869       -2907.224          45.000  
G16  20239624.898   106359947.920       -1070.972          39.000  
G 6  21895547.780   115061865.344       -3771.752          37.000  
E19  21336408.808   112123598.091       -1475.913          42.000  
S23  37023020.155   194557282.826        -256.776          38.000  
E 4  22167051.458   116488653.815        1537.915          44.000  
E21  22473245.944   118097718.750        1436.251          44.000  
E27  22924970.377   120471526.612       -1568.287          41.000  
E36  24068445.846                3         52.287          22.000  
E 1  25299465.026   132949561.466        3096.728          34.000  
S36  37191897.917   195444748.884        -256.771          37.000  
G26  21775496.215   114430978.203       -2782.603          33.000  
G 5  20696708.651   108761934.321        2833.650          44.000  
G30  21024014.184   110481947.919        3254.985          43.000  
G29  22248130.075   116914698.721       -1705.795          36.000  
> 2019 11 12 13 35 44.9920000  0 19                     
G 9  18233085.724    95815512.114       -1687.013          52.000  
G 4  17970507.612    94435648.171        -998.601          48.000  
G 7  19076815.548   100249333.592        1723.843          50.000  
G 2  20976947.055   110234603.213       -1745.419          41.000  
G23  20038525.788   105303165.332       -2907.487          45.000  
G16  20239828.760   106361019.204       -1071.620          39.000  
G 6  21896265.376   115065637.236       -3771.950          37.000  
E19  21336689.626   112125074.115       -1476.031          42.000  
S23  37023068.928   194557539.673        -256.635          38.000  
E 4  22166758.870   116487116.057        1537.815          44.000  
E21  22472972.804   118096282.761        1435.818          44.000  
E27  22925268.819   120473094.840       -1568.422          41.000  
E36  24068435.794                3         46.337          21.000  
E 1  25298875.427   132946464.485        3096.806          34.000  
S36  37191946.699   195445005.800        -256.906          37.000  
G26  21776026.012   114433760.976       -2782.918          33.000  
G 5  20696169.675   108759100.670        2833.487          44.000  
G30  21023394.762   110478693.009        3254.698          43.000  
G29  22248454.736   116916404.559       -1706.335          37.000  
> 2019 11 12 13 35 45.9920000  0 19                     
G 9  18233406.947    95817199.528       -1687.875          52.000  
G 4  17970697.863    94436647.092        -999.321          48.000  
G 7  19076487.510   100247610.147        1723.022          50.000  
G 2  20977279.316   110236348.782       -1746.277          41.000  
G23  20039079.100   105306073.197       -2908.108          45.000  
G16  20240032.771   106362091.342       -1072.524          38.000  
G 6  21896983.322   115069409.427       -3772.139          38.000  
E19  21336970.644   112126550.579       -1476.786          42.000  
S23  37023117.745   194557796.698        -257.181          38.000  
E 4  22166465.794   116485578.666        1537.097          44.000  
E21  22472699.202   118094847.307        1435.175          44.000  
E27  22925567.131   120474663.646       -1569.166          41.000  
E36  24068425.848                3         42.762          21.000  
E 1  25298286.063   132943367.703        3096.490          34.000  
S36  37191995.569   195445262.795        -257.369          37.000  
G26  21776555.713   114436544.353       -2783.810          34.000  
G 5  20695630.262   108756267.498        2832.732          44.000  
G30  21022775.105   110475438.399        3254.207          43.000  
G29  22248779.546   116918111.052       -1706.865          37.000  
> 2019 11 12 13 35 46.9920000  0 19                     
G 9  18233728.293    95818887.331       -1687.959          52.000  
G 4  17970888.105    94437646.432        -999.502          48.000  
G 7  19076159.577   100245887.050        1722.994          50.000  
G 2  20977611.071   110238094.762       -1746.311          41.000  
G23  20039632.455   105308981.259       -2908.052          45.000  
G16  20240237.200   106363164.137       -1073.018          39.000  
G 6  21897701.486   115073181.735       -3772.461          38.000  
E19  21337251.253   112128027.275       -1476.943          42.000  
S23  37023166.667   194558053.552        -257.002          38.000  
E 4  22166173.267   116484041.427        1537.306          44.000  
E21  22472426.054   118093412.218        1434.989          44.000  
E27  22925865.713   120476232.797       -1569.263          41.000  
E36  24068418.152                3         43.585          22.000  
E 1  25297696.752   132940270.872        3096.998          34.000  
S36  37192044.569   195445519.689        -257.526          37.000  
G26  21777085.284   114439328.137       -2784.059          33.000  
G 5  20695091.025   108753434.584        2832.741          44.000  
G30  21022155.570   110472183.946        3254.184          43.000  
G29  22249104.207   116919818.112       -1707.311          37.000  
> 2019 11 12 13 35 47.9920000  0 19                     
G 9  18234049.543    95820575.484       -1688.587          52.000  
G 4  17971078.234    94438646.150       -1000.167          48.000  
G 7  19075831.495   100244164.288        1722.346          50.000  
G 2  20977943.113   110239841.130       -1746.930          41.000  
G23  20040185.819   105311889.505       -2908.670          45.000  
G16  20240441.411   106364237.544       -1074.077          39.000  
G 6  21898419.527   115076954.080       -3773.129          37.000  
E19  21337532.637   112129504.127       -1477.082          42.000  
S23  37023215.693   194558310.261        -256.764          38.000  
E 4  22165880.827   116482504.323        1536.669          44.000  
E21  22472152.888   118091977.416        1434.272          44.000  
E27  22926164.574   120477802.281       -1570.059          41.000  
E36  24068410.614                3         42.250          22.000  
E 1  25297107.501   132937174.023        3096.558          34.000  
S36  37192093.072   195445776.389        -257.096          37.000  
G26  21777615.352   114442112.245       -2784.071          33.000  
G 5  20694552.101   108750601.877        2832.436          44.000  
G30  21021536.148   110468929.563        3254.077          43.000  
G29  22249428.982   116921525.630       -1707.832          37.000  
> 2019 11 12 13 35 48.9920000  0 19                     
G 9  18234371.063    95822264.045       -1688.462          52.000  
G 4  17971268.389    94439646.288       -1000.107          48.000  
G 7  19075503.763   100242441.905        1722.373          50.000  
G 2  20978275.269   110241587.926       -1746.889          41.000  
G23  20040739.313   105314797.950       -2908.438          45.000  
G16  20240645.413   106365311.603       -1074.257          38.000  
G 6  21899137.630   115080726.515       -3772.281          37.000  
E19  21337814.074   112130981.249       -1477.171          42.000  
S23  37023264.117   194558566.924        -256.451          37.000  
E 4  22165588.414   116480967.372        1537.130          44.000  
E21  22471879.662   118090542.969        1434.535          44.000  
E27  22926463.348   120479372.118       -1569.946          41.000  
E36  24068403.136                3         43.613          22.000  
E 1  25296518.094   132934077.176        3096.742          34.000  
S36  37192141.645   195446033.026        -256.423          37.000  
G26  21778145.210   114444896.753       -2784.558          34.000  
G 5  20694013.168   108747769.461        2832.391          44.000  
G30  21020916.988   110465675.308        3254.389          43.000  
G29  22249754.062   116923233.667       -1708.019          37.000  
> 2019 11 12 13 35 49.9920000  0 19                     
G 9  18234692.575    95823952.979       -1688.996          52.000  
G 4  17971458.605    94440652.3423      -1000.679          47.000  
G 7  19075175.891   100240719.858        1722.135          50.000  
G 2  20978607.591   110243335.163       -1747.281          41.000  
G23  20041292.703   105317706.566       -2908.595          44.000  
G16  20240849.982   106366386.281       -1074.910          39.000  
G 6  21899855.584   115084499.053       -3772.446          38.000  
E19  21338095.328   112132458.565       -1477.456          42.000  
S23  37023312.341   194558823.474        -256.729          37.000  
E 4  22165296.245   116479430.565        1536.932          44.000  
E21  22471606.923   118089108.845        1434.051          44.000  
E27  22926762.192   120480942.303       -1570.256          41.000  
E36  24068395.668                3         40.196          22.000  
E 1  25295928.739   132930980.261        3096.605          34.000  
S36  37192190.479   195446289.458        -257.002          37.000  
G26  21778675.208   114447681.644       -2785.198          33.000  
G 5  20693474.349   108744937.291        2832.104          44.000  
G30  21020297.863   110462421.162        3254.302          43.000  
G29  22250079.116   116924942.209       -1708.732          37.000  
> 2019 11 12 13 35 50.9920000  0 19                     
G 9  18235013.790    95825641.425       -1688.331          52.000  
G 4  17971648.856    94441651.4112       -999.871          48.000  
G 7  19074848.315   100238997.317        1722.679          50.000  
G 2  20978939.826   110245081.904       -1746.550          41.000  
G23  20041845.962   105320614.489       -2907.611          44.000  
G16  20241054.437   106367460.726       -1074.547          39.000  
G 6  21900573.015   115088270.784       -3771.315          37.000  
E19  21338376.233   112133935.225       -1476.723          42.000  
S23  37023360.635   194559079.031        -255.447          37.000  
E 4  22165004.050   116477893.040        1537.669          44.000  
E21  22471333.958   118087674.196        1434.703          44.000  
E27  22927060.800   120482511.945       -1569.453          41.000  
E36  24068388.417                3         46.908          21.000  
E 1  25295338.756   132927882.431        3098.216          34.000  
S36  37192238.703   195446544.796        -255.113          37.000  
G26  21779205.032   114450466.011       -2783.799          33.000  
G 5  20692935.451   108742104.490        2832.970          44.000  
G30  21019678.773   110459166.262        3255.139          43.000  
G29  22250404.161   116926650.356       -1708.072          37.000  
> 2019 11 12 13 35 51.9920000  0 19                     
G 9  18235335.101    95827329.931       -1689.081          52.000  
G 4  17971839.151    94442651.5893      -1000.655          47.000  
G 7  19074520.469   100237274.800        1722.114          50.000  
G 2  20979272.663   110246828.774       -1747.342          41.000  
G23  20042399.222   105323522.312       -2908.200          44.000  
G16  20241258.718   106368535.504       -1075.411          39.000  
G 6  21901290.856   115092042.317       -3771.932          37.000  
E19  21338657.033   112135411.760       -1476.868          42.000  
S23  37023408.937   194559334.171        -255.504          37.000  
E 4  22164711.296   116476355.343        1537.382          44.000  
E21  22471061.168   118086239.553        1434.444          44.000  
E27  22927359.451   120484081.629       -1570.043          41.000  
E36  24068380.215                3         47.205          21.000  
E 1  25294749.131   132924784.264        3098.127          33.000  
S36  37192287.424   195446799.726        -254.975          37.000  
G26  21779734.742   114453250.458       -2785.001          33.000  
G 5  20692396.554   108739271.636        2832.300          44.000  
G30  21019059.168   110455911.181        3254.734          43.000  
G29  22250729.241   116928358.715       -1708.838          36.000  
> 2019 11 12 13 35 52.9920000  0 19                     
G 9  18235656.568    95829019.119       -1689.705          52.000  
G 4  17972029.690    94443653.4513      -1001.457          47.000  
G 7  19074192.850   100235552.953        1721.365          50.000  
G 2  20979605.360   110248576.344       -1748.109          41.000  
G23  20042952.708   105326430.600       -2908.656          44.000  
G16  20241463.156   106369611.214       -1076.331          38.000  
G 6  21902008.330   115095814.203       -3772.417          37.000  
E19  21338937.999   112136888.828       -1477.493          42.000  
S23  37023457.221   194559589.523        -255.594          37.000  
E 4  22164418.866   116474818.090        1536.852          44.000  
E21  22470788.281   118084805.546        1433.468          44.000  
E27  22927658.260   120485651.966       -1570.876          41.000  
E36  24068371.892                3         45.922          21.000  
E 1  25294159.558   132921686.387        3097.485          34.000  
S36  37192336.110   195447054.886        -255.365          37.000  
G26  21780264.871   114456035.569       -2785.962          33.000  
G 5  20691857.115   108736439.323        2831.727          44.000  
G30  21018439.615   110452656.479        3254.382          43.000  
G29  22251054.766   116930067.857       -1709.574          37.000  
> 2019 11 12 13 35 53.9920000  0 19                     
G 9  18235978.385    95830709.240       -1690.768          52.000  
G 4  17972220.255    94444654.2572      -1002.402          48.000  
G 7  19073865.423   100233831.983        1720.367          50.000  
G 2  20979938.319   110250324.869       -1749.036          41.000  
G23  20043506.220   105329339.620       -2909.490          44.000  
G16  20241667.760   106370688.089       -1077.539          38.000  
G 6  21902726.180   115099586.715       -3772.954          37.000  
E19  21339219.567   112138366.640       -1478.447          42.000  
S23  37023505.454   194559845.280        -255.709          37.000  
E 4  22164126.478   116473281.520        1536.040          45.000  
E21  22470516.075   118083372.395        1432.619          44.000  
E27  22927957.069   120487223.161       -1571.817          41.000  
E36  24068365.234                3         45.665          21.000  
E 1  25293570.142   132918588.969        3097.199          33.000  
S36  37192384.848   195447310.492        -256.237          37.000  
G26  21780795.087   114458821.577       -2786.529          33.000  
G 5  20691318.410   108733607.789        2831.059          44.000  
G30  21017820.552   110449402.439        3253.340          43.000  
G29  22251380.274   116931778.044       -1711.229          36.000  
> 2019 11 12 13 35 54.9920000  0 19                     
G 9  18236299.975    95832401.249       -1693.088          52.000  
G 4  17972411.492    94445658.9922      -1004.858          47.000  
G 7  19073538.319   100232112.889        1718.042          50.000  
G 2  20980270.990   110252075.318       -1751.742          41.000  
G23  20044060.465   105332250.340       -2911.787          45.000  
G16  20241872.905   106371767.123       -1080.338          38.000  
G 6  21903444.614   115103360.847       -3774.761          37.000  
E19  21339500.865   112139846.177       -1480.629          42.000  
S23  37023554.550   194560102.489        -258.220          37.000  
E 4  22163834.283   116471746.621        1533.925          45.000  
E21  22470243.451   118081941.098        1430.254          44.000  
E27  22928256.332   120488796.237       -1574.338          41.000  
E36  24068360.479                3         39.971          22.000  
E 1  25292980.917   132915493.091        3095.065          33.000  
S36  37192434.075   195447567.548        -258.348          38.000  
G26  21781325.905   114461609.476       -2788.885          33.000  
G 5  20690780.306   108730778.042        2828.742          45.000  
G30  21017201.557   110446150.013        3251.567          43.000  
G29  22251705.939   116933490.232       -1713.520          36.000  
> 2019 11 12 13 35 55.9920000  0 19                     
G 9  18236622.386    95834094.775       -1694.070          52.000  
G 4  17972602.982    94446664.2562      -1005.782          47.000  
G 7  19073211.563   100230395.286        1717.010          50.000  
G 2  20980604.315   110253827.308       -1752.652          41.000  
G23  20044614.518   105335162.378       -2912.576          45.000  
G16  20242078.207   106372847.904       -1081.426          38.000  
G 6  21904163.022   115107136.193       -3775.930          37.000  
E19  21339783.122   112141327.061       -1481.425          42.000  
S23  37023603.681   194560360.702        -258.580          37.000  
E 4  22163542.760   116470212.990        1533.277          44.000  
E21  22469971.445   118080511.273        1429.328          44.000  
E27  22928555.943   120490370.784       -1575.312          41.000  
E36  24068357.268                3         25.801          22.000  
E 1  25292391.946   132912398.290        3094.681          33.000  
S36  37192483.416   195447825.728        -258.603          37.000  
G26  21781856.645   114464398.901       -2789.864          33.000  
G 5  20690242.141   108727949.666        2827.902          44.000  
G30  21016583.244   110442898.848        3250.867          43.000  
G29  22252032.022   116935204.073       -1714.425          36.000  
> 2019 11 12 13 35 56.9920000  0 19                     
G 9  18236944.796    95835788.982       -1694.165          52.000  
G 4  17972794.481    94447670.2392      -1005.994          48.000  
G 7  19072884.537   100228678.337        1716.985          50.000  
G 2  20980937.798   110255580.012       -1752.455          41.000  
G23  20045168.964   105338074.909       -2912.419          45.000  
G16  20242284.067   106373929.631       -1082.061          38.000  
G 6  21904881.735   115110911.867       -3774.954          37.000  
E19  21340065.135   112142808.461       -1481.223          41.000  
S23  37023653.205   194560619.096        -258.018          38.000  
E 4  22163250.556   116468679.813        1533.326          44.000  
E21  22469699.239   118079082.069        1429.102          44.000  
E27  22928855.633   120491945.965       -1575.121          41.000  
E36  24068353.107                3         36.778          23.000  
E 1  25291803.036   132909303.774        3094.673          33.000  
S36  37192532.591   195448084.099        -257.925          37.000  
G26  21782387.629   114467188.978       -2790.285          34.000  
G 5  20689704.029   108725121.847        2827.867          44.000  
G30  21015964.686   110439648.085        3250.952          43.000  
G29  22252357.940   116936918.682       -1714.226          36.000  
> 2019 11 12 13 35 57.9920000  0 19                     
G 9  18237267.154    95837483.356       -1694.637          52.000  
G 4  17972986.040    94448676.4022      -1006.524          48.000  
G 7  19072557.642   100226961.536        1716.632          50.000  
G 2  20981271.166   110257332.908       -1752.523          41.000  
G23  20045723.078   105340987.407       -2912.576          45.000  
G16  20242490.023   106375011.775       -1082.438          38.000  
G 6  21905600.109   115114687.488       -3775.780          37.000  
E19  21340346.982   112144289.867       -1481.567          41.000  
S23  37023702.746   194560877.182        -257.830          37.000  
E 4  22162958.640   116467146.571        1533.258          44.000  
E21  22469427.478   118077652.988        1428.918          44.000  
E27  22929155.454   120493521.268       -1575.353          41.000  
E36  24068346.999                3         30.458          23.000  
E 1  25291213.856   132906209.003        3095.065          33.000  
S36  37192581.582   195448342.115        -257.713          37.000  
G26  21782918.560   114469979.231       -2790.074          33.000  
G 5  20689165.681   108722294.051        2827.871          44.000  
G30  21015346.233   110436397.234        3250.613          43.000  
G29  22252684.320   116938633.613       -1715.024          36.000  
> 2019 11 12 13 35 58.9920000  0 19                     
G 9  18237589.704    95839177.872       -1694.845          52.000  
G 4  17973177.469    94449682.7412      -1006.768          48.000  
G 7  19072230.974   100225244.854        1716.272          50.000  
G 2  20981605.007   110259086.014       -1753.299          41.000  
G23  20046277.201   105343899.874       -2912.865          45.000  
G16  20242696.101   106376094.312       -1083.242          38.000  
G 6  21906318.403   115118462.919       -3775.603          38.000  
E19  21340628.803   112145771.243       -1481.776          41.000  
S23  37023751.851   194561134.955        -258.073          38.000  
E 4  22162667.195   116465613.251        1533.050          45.000  
E21  22469155.648   118076223.992        1428.738          44.000  
E27  22929455.188   120495096.710       -1575.789          41.000  
E36  24068338.850                3         37.294          25.000  
E 1  25290625.025   132903113.955        3094.949          33.000  
S36  37192630.591   195448599.754        -257.874          38.000  
G26  21783449.509   114472769.627       -2791.099          33.000  
G 5  20688627.656   108719466.285        2827.456          44.000  
G30  21014727.937   110433146.274        3250.577          44.000  
G29  22253010.543   116940348.804       -1716.089          35.000  
> 2019 11 12 13 35 59.9920000  0 19                     
G 9  18237912.402    95840872.806       -1694.957          52.000  
G 4  17973369.195    94450689.5022      -1006.779          48.000  
G 7  19071904.175   100223528.548        1716.354          50.000  
G 2  20981938.576   110260839.552       -1753.512          41.000  
G23  20046831.368   105346812.529       -2912.588          45.000  
G16  20242902.398   106377177.498       -1083.524          38.000  
G 6  21907036.960   115122238.467       -3775.573          38.000  
E19  21340910.904   112147252.858       -1481.626          42.000  
S23  37023800.991   194561392.609        -257.355          37.000  
E 4  22162375.620   116464080.088        1533.256          44.000  
E21  22468884.052   118074795.371        1428.595          44.000  
E27  22929754.965   120496672.523       -1575.915          41.000  
E36  24068330.980                3         37.521          25.000  
E 1  25290035.966   132900018.932        3095.272          33.000  
S36  37192679.748   195448857.158        -257.330          38.000  
G26  21783980.790   114475560.378       -2790.441          33.000  
G 5  20688089.264   108716638.793        2827.411          44.000  
G30  21014109.396   110429895.419        3250.954          44.000  
G29  22253336.836   116942064.502       -1715.786          35.000  
> 2019 11 12 13 36  0.9920000  0 19                     
G 9  18238235.048    95842567.892       -1695.198          52.000  
G 4  17973560.973    94451696.4592      -1007.002          48.000  
G 7  19071577.691   100221812.396        1716.009          50.000  
G 2  20982272.224   110262593.273       -1753.932          41.000  
G23  20047385.325   105349725.172       -2912.694          44.000  
G16  20243108.642   106378261.104       -1083.870          38.000  
G 6  21907755.394   115126013.893       -3775.564          38.000  
E19  21341192.742   112148734.480       -1481.814          41.000  
S23  37023849.956   194561649.970        -257.451          37.000  
E 4  22162083.634   116462546.872        1533.285          45.000  
E21  22468612.030   118073366.859        1428.328          44.000  
E27  22930054.899   120498248.449       -1576.029          41.000  
E36  24068327.071                3         35.902          26.000  
E 1  25289446.830   132896923.656        3095.471          33.000  
S36  37192728.827   195449114.316        -256.680          37.000  
G26  21784511.861   114478351.356       -2791.782          33.000  
G 5  20687551.100   108713811.346        2827.365          44.000  
G30  21013490.934   110426644.489        3250.661          44.000  
G29  22253663.277   116943780.500       -1716.419          35.000  
> 2019 11 12 13 36  1.9920000  0 19                     
G 9  18238557.999    95844263.299       -1695.668          52.000  
G 4  17973752.428    94452703.7492      -1007.691          48.000  
G 7  19071251.258   100220096.514        1715.591          50.000  
G 2  20982605.907   110264347.364       -1754.761          41.000  
G23  20047939.701   105352637.923       -2913.018          44.000  
G16  20243315.026   106379345.248       -1084.364          38.000  
G 6  21908474.098   115129789.289       -3775.128          38.000  
E19  21341475.034   112150216.235       -1482.069          42.000  
S23  37023898.764   194561907.109        -257.190          37.000  
E 4  22161791.709   116461013.728        1533.064          45.000  
E21  22468339.963   118071938.600        1428.084          44.000  
E27  22930354.982   120499824.640       -1576.288          40.000  
E36  24068317.081                3         36.254          26.000  
E 1  25288857.754   132893828.245        3095.538          33.000  
S36  37192777.731   195449371.373        -257.441          37.000  
G26  21785043.081   114481142.556       -2791.521          33.000  
G 5  20687012.900   108710984.070        2826.922          44.000  
G30  21012872.717   110423393.579        3250.694          44.000  
G29  22253989.422   116945496.900       -1717.014          35.000  
> 2019 11 12 13 36  2.9920000  0 19                     
G 9  18238880.514    95845959.284       -1696.207          52.000  
G 4  17973944.415    94453711.6452      -1008.153          48.000  
G 7  19070925.079   100218381.202        1715.144          50.000  
G 2  20982940.140   110266102.048       -1755.055          41.000  
G23  20048494.077   105355551.067       -2913.301          45.000  
G16  20243521.628   106380430.268       -1085.554          39.000  
G 6  21909192.847   115133565.012       -3775.674          38.000  
E19  21341757.213   112151698.397       -1482.223          41.000  
S23  37023947.328   194562164.394        -257.593          37.000  
E 4  22161500.282   116459480.922        1532.850          45.000  
E21  22468068.211   118070510.892        1427.495          44.000  
E27  22930654.777   120501401.394       -1577.002          40.000  
E36  24068310.144                3         35.900          26.000  
E 1  25288268.408   132890733.052        3095.060          33.000  
S36  37192826.365   195449628.566        -257.240          37.000  
G26  21785574.597   114483934.381       -2792.266          33.000  
G 5  20686475.102   108708157.246        2826.574          44.000  
G30  21012254.194   110420143.003        3250.153          44.000  
G29  22254315.924   116947214.011       -1717.483          35.000  
> 2019 11 12 13 36  3.9920000  0 19                     
G 9  18239203.238    95847655.627       -1696.473          52.000  
G 4  17974136.455    94454719.9172      -1008.412          48.000  
G 7  19070598.847   100216666.218        1714.907          50.000  
G 2  20983274.478   110267857.123       -1755.645          41.000  
G23  20049048.453   105358464.368       -2913.315          44.000  
G16  20243728.264   106381515.864       -1085.928          38.000  
G 6  21909911.447   115137340.786       -3775.748          38.000  
E19  21342039.051   112153180.759       -1482.282          42.000  
S23  37023996.407   194562421.461        -256.826          38.000  
E 4  22161208.444   116457948.255        1532.671          45.000  
E21  22467796.503   118069083.468        1427.330          44.000  
E27  22930954.912   120502978.456       -1577.153          40.000  
E36  24068304.386                3         34.929          27.000  
E 1  25287679.271   132887637.778        3095.494          34.000  
S36  37192875.775   195449885.706        -256.889          37.000  
G26  21786105.869   114486726.529       -2792.358          33.000  
G 5  20685937.295   108705330.648        2826.556          44.000  
G30  21011635.557   110416892.488        3250.519          44.000  
G29  22254642.679   116948931.559       -1717.275          35.000  
> 2019 11 12 13 36  4.9920000  0 19                     
G 9  18239525.779    95849352.483       -1697.106          52.000  
G 4  17974328.259    94455728.7312      -1009.150          48.000  
G 7  19070272.667   100214951.732        1714.171          50.000  
G 2  20983608.780   110269612.745       -1756.099          41.000  
G23  20049603.082   105361378.004       -2913.947          44.000  
G16  20243934.954   106382602.233       -1086.666          38.000  
G 6  21910630.177   115141116.763       -3776.178          38.000  
E19  21342321.317   112154663.453       -1482.811          41.000  
S23  37024045.381   194562678.643        -257.269          37.000  
E 4  22160916.511   116456415.865        1532.063          45.000  
E21  22467525.012   118067656.524        1426.734          44.000  
E27  22931254.960   120504556.013       -1577.899          40.000  
E36  24068294.971                3         35.324          27.000  
E 1  25287090.282   132884542.633        3094.888          33.000  
S36  37192924.749   195450142.902        -257.292          37.000  
G26  21786637.010   114489519.188       -2793.080          33.000  
G 5  20685399.540   108702504.453        2825.935          44.000  
G30  21011017.261   110413642.238        3250.327          44.000  
G29  22254969.504   116950649.783       -1718.252          35.000  
> 2019 11 12 13 36  5.9920000  0 19                     
G 9  18239848.870    95851049.716       -1697.112          52.000  
G 4  17974520.237    94456737.9392      -1009.080          48.000  
G 7  19069946.968   100213237.591        1714.233          50.000  
G 2  20983943.423   110271368.761       -1755.695          41.000  
G23  20050157.754   105364291.805       -2913.513          45.000  
G16  20244141.765   106383689.257       -1087.139          39.000  
G 6  21911348.743   115144892.842       -3776.010          38.000  
E19  21342603.295   112156146.380       -1482.790          41.000  
S23  37024094.373   194562935.704        -256.945          38.000  
E 4  22160624.900   116454883.605        1532.597          45.000  
E21  22467253.408   118066229.909        1426.668          44.000  
E27  22931555.243   120506133.899       -1578.018          40.000  
E36  24068286.900                1         34.570          27.000  
E 1  25286501.346   132881447.440        3095.469          33.000  
S36  37192973.802   195450399.882        -256.747          37.000  
G26  21787168.159   114492312.217       -2792.889          33.000  
G 5  20684861.820   108699678.503        2826.217          44.000  
G30  21010398.965   110410392.111        3250.238          44.000  
G29  22255296.469   116952368.513       -1718.873          35.000  
> 2019 11 12 13 36  6.9920000  0 19                     
G 9  18240171.664    95852747.302       -1697.576          52.000  
G 4  17974712.207    94457747.0311      -1009.636          48.000  
G 7  19069620.980   100211523.780        1713.818          50.000  
G 2  20984277.734   110273125.173       -1756.206          41.000  
G23  20050712.444   105367205.773       -2913.913          45.000  
G16  20244348.689   106384776.846       -1087.575          39.000  
G 6  21912067.438   115148668.930       -3775.885          38.000  
E19  21342885.343   112157629.479       -1483.297          41.000  
S23  37024143.373   194563192.605        -256.901          38.000  
E 4  22160333.255   116453351.480        1532.281          45.000  
E21  22466981.769   118064803.582        1426.377          44.000  
E27  22931855.832   120507712.082       -1578.029          40.000  
E36  24068283.550   126479693.544          34.008          27.000  
E 1  25285912.323   132878352.185        3095.021          33.000  
S36  37193022.732   195450656.782        -256.582          38.000  
G26  21787699.684   114495105.594       -2793.519          33.000  
G 5  20684324.031   108696852.769        2825.740          44.000  
G30  21009780.434   110407142.052        3250.092          44.000  
G29  22255623.469   116954087.685       -1719.634          35.000  
> 2019 11 12 13 36  7.9920000  0 19                     
G 9  18240494.772    95854445.458       -1698.605          52.000  
G 4  17974904.395    94458757.206       -1010.617          48.000  
G 7  19069295.211   100209810.513        1712.847          50.000  
G 2  20984612.403   110274882.188       -1757.200          41.000  
G23  20051267.056   105370120.114       -2914.674          45.000  
G16  20244555.640   106385865.306       -1089.125          39.000  
G 6  21912786.030   115152445.328       -3776.869          38.000  
E19  21343167.618   112159112.960       -1483.804          41.000  
S23  37024192.347   194563449.546        -256.997          38.000  
E 4  22160041.775   116451819.685        1531.434          45.000  
E21  22466710.645   118063377.772        1425.620          44.000  
E27  22932155.958   120509290.818       -1579.037          40.000  
E36  24068278.105   126479660.061          32.835          27.000  
E 1  25285323.378   132875257.077        3094.801          33.000  
S36  37193071.645   195450913.791        -257.295          37.000  
G26  21788231.427   114497899.555       -2795.073          33.000  
G 5  20683786.180   108694027.472        2824.996          44.000  
G30  21009161.815   110403892.295        3249.599          44.000  
G29  22255951.036   116955807.505       -1719.946          35.000  
> 2019 11 12 13 36  8.9920000  0 19                     
G 9  18240817.846    95856144.004       -1698.634          52.000  
G 4  17975096.985    94459767.805       -1010.808          48.000  
G 7  19068969.136   100208097.604        1712.854          50.000  
G 2  20984946.819   110276639.639       -1757.591          41.000  
G23  20051821.702   105373034.645       -2914.633          45.000  
G16  20244762.739   106386954.373       -1089.135          39.000  
G 6  21913504.638   115156221.761       -3776.156          38.000  
E19  21343449.683   112160596.687       -1483.943          41.000  
S23  37024241.408   194563706.406        -256.526          38.000  
E 4  22159750.618   116450288.047        1531.700          45.000  
E21  22466439.748   118061952.322        1425.348          44.000  
E27  22932456.198   120510869.908       -1579.058          40.000  
E36  24068272.609   126479626.976          32.894          27.000  
E 1  25284734.137   132872161.958        3094.978          33.000  
S36  37193120.462   195451170.645        -256.500          37.000  
G26  21788763.022   114500693.849       -2794.775          32.000  
G 5  20683248.652   108691202.437        2825.071          44.000  
G30  21008543.484   110400642.651        3249.811          44.000  
G29  22256278.559   116957527.880       -1720.399          35.000  
> 2019 11 12 13 36  9.9920000  0 19                     
G 9  18241141.250    95857843.024       -1699.294          52.000  
G 4  17975289.356    94460778.883       -1011.199          48.000  
G 7  19068643.157   100206385.152        1712.328          50.000  
G 2  20985281.279   110278397.558       -1758.072          41.000  
G23  20052376.192   105375949.449       -2914.787          45.000  
G16  20244970.537   106388044.160       -1089.848          39.000  
G 6  21914223.308   115159998.413       -3776.308          38.000  
E19  21343732.115   112162080.698       -1484.178          41.000  
S23  37024290.190   194563963.260        -256.802          38.000  
E 4  22159459.147   116448756.642        1531.375          45.000  
E21  22466168.580   118060527.275        1425.000          44.000  
E27  22932756.952   120512449.418       -1579.571          40.000  
E36  24068267.984   126479594.444          32.082          28.000  
E 1  25284145.288   132869066.894        3094.991          33.000  
S36  37193169.079   195451427.505        -256.807          37.000  
G26  21789294.748   114503488.601       -2795.388          33.000  
G 5  20682710.976   108688377.752        2824.450          44.000  
G30  21007925.327   110397393.219        3249.370          44.000  
G29  22256606.117   116959248.863       -1721.352          35.000  
> 2019 11 12 13 36 10.9920000  0 19                     
G 9  18241464.812    95859542.613       -1699.694          52.000  
G 4  17975481.788    94461790.575       -1011.989          48.000  
G 7  19068317.318   100204673.252        1711.719          50.000  
G 2  20985615.660   110280156.138       -1759.290          41.000  
G23  20052930.716   105378864.648       -2915.360          45.000  
G16  20245177.985   106389134.815       -1090.941          39.000  
G 6  21914941.934   115163775.349       -3777.090          38.000  
E19  21344014.582   112163565.118       -1484.374          41.000  
S23  37024339.007   194564220.193        -256.934          38.000  
E 4  22159168.191   116447225.585        1530.802          44.000  
E21  22465897.692   118059102.766        1424.212          44.000  
E27  22933057.454   120514029.485       -1580.261          40.000  
E36  24068263.918   126479562.503          31.207          28.000  
