     3.03           OBSERVATION DATA    M: Mixed            RINEX VERSION / TYPE
RTKCONV 2.4.3 b33   MKJ                 20191127 105637 UTC PGM / RUN BY / DATE            
Low-cost receiver                                           MARKER NAME               
NON GEODETIC                                                MARKER TYPE         
M. Kirkko-Jaakkola  Finnish Geospatial Research Institute   OBSERVER / AGENCY   
                    U-Blox M8T          10/19               REC # / TYPE / VERS
                    Septentrio PolaNt Choke Ring B3/E6      ANT # / TYPE    
  2894066.8146  1321675.9422  5509486.8092                  APPROX POSITION XYZ 
        0.0000        0.0000        0.0000                  ANTENNA: DELTA H/E/N
G    4 C1C L1C D1C S1C                                      SYS / # / OBS TYPES 
R    4 C1C L1C D1C S1C                                      SYS / # / OBS TYPES 
E    4 C1C L1C D1C S1C                                      SYS / # / OBS TYPES 
  2019    11    26    15     6    1.9860000     GPS         TIME OF FIRST OBS   
  2019    11    26    15    25   24.0160000     GPS         TIME OF LAST OBS    
G                                                           SYS / PHASE SHIFT   
R                                                           SYS / PHASE SHIFT   
E                                                           SYS / PHASE SHIFT   
  0                                                         GLONASS SLOT / FRQ #
 C1C    0.000 C1P    0.000 C2C    0.000 C2P    0.000        GLONASS COD/PHS/BIS 
                                                            END OF HEADER       
> 2019 11 26 15  6  1.9860000  0 21                     
G30  16294261.753    85626927.885        -695.807          53.000  
G13  17081731.011    89765085.195        1874.746          49.000  
G 7  17742518.223    93237544.779       -2537.094          49.000  
G 5  17993593.605    94556976.428       -2568.947          49.000  
G28  17986307.798    94518676.589        2378.261          46.000  
G 8  19143093.639   100597632.617         403.256          43.000  
G15  19260738.819   101215865.211        3119.392          42.000  
E30  21533339.663   113158431.234       -3103.964          28.000  
E19  19526172.936   102610714.839        -148.247          43.000  
E27  19556067.209   102767806.225        -852.611          48.000  
E21  20796420.929   109285926.847        2022.123          45.000  
E 4  22766760.595   119640098.566        2434.868          39.000  
G21  20966782.678   110181211.867        -855.559          26.000  
G 9  21612931.906   113576712.857       -4111.021          37.000  
E20  15949692.884    83816207.764       -2618.263          38.000  
R14  16550923.279    88225675.224       -3286.603          49.000  
R15  15163040.631    81026636.554         685.121          52.000  
R 5  15550261.615    83125022.222       -2169.149          53.000  
R23  18265987.290    97710686.605        1322.735          45.000  
R16  18351360.511    98029605.028        3803.064          40.000  
R 6  16583739.878    88493934.953        2567.371          47.000  
> 2019 11 26 15  6  2.9860000  0 21                     
G30  16294394.209    85627624.493        -696.820          53.000  
G13  17081374.215    89763211.255        1873.808          49.000  
G 7  17743001.079    93240082.713       -2537.979          49.000  
G 5  17994082.673    94559546.168       -2569.846          49.000  
G28  17985855.306    94516299.164        2377.296          46.000  
G 8  19143017.277   100597230.196         402.298          43.000  
G15  19260145.127   101212746.554        3118.690          42.000  
E30  21533929.882   113161535.467       -3103.949          28.000  
E19  19526200.987   102610863.902        -149.010          43.000  
E27  19556229.767   102768659.533        -853.310          48.000  
E21  20796036.327   109283905.428        2021.373          45.000  
E 4  22766297.135   119637664.359        2434.243          39.000  
G21  20966947.679   110182068.655        -856.745          26.000  
G 9  21613714.251   113580824.123       -4111.340          37.000  
E20  15950191.323    83818826.881       -2619.361          38.000  
R14  16551539.769    88228962.618       -3287.524          49.000  
R15  15162912.529    81025952.379         683.977          52.000  
R 5  15550667.403    83127192.453       -2170.469          53.000  
R23  18265739.881    97709364.935        1321.563          45.000  
R16  18350648.306    98025802.689        3802.048          40.000  
R 6  16583258.627    88491368.516        2566.254          47.000  
> 2019 11 26 15  6  3.9860000  0 21                     
G30  16294526.717    85628321.319        -697.441          53.000  
G13  17081017.559    89761337.464        1873.205          49.000  
G 7  17743484.057    93242620.681       -2538.402          49.000  
G 5  17994571.619    94562116.144       -2570.641          49.000  
G28  17985403.013    94513921.847        2376.910          46.000  
G 8  19142940.801   100596828.151         401.165          43.000  
G15  19259551.811   101209627.850        3118.190          42.000  
E30  21534520.834   113164639.646       -3104.443          28.000  
E19  19526229.256   102611013.098        -149.869          43.000  
E27  19556391.556   102769512.968        -853.955          48.000  
E21  20795651.122   109281884.014        2021.009          45.000  
E 4  22765833.806   119635229.993        2434.006          39.000  
G21  20967112.688   110182925.532        -857.318          26.000  
G 9  21614496.702   113584935.112       -4111.278          38.000  
E20  15950689.702    83821445.923       -2619.566          38.000  
R14  16552156.154    88232250.168       -3288.214          49.000  
R15  15162784.549    81025268.611         683.079          52.000  
R 5  15551073.644    83129363.176       -2171.421          53.000  
R23  18265492.759    97708043.818        1320.423          45.000  
R16  18349936.468    98022000.283        3802.116          40.000  
R 6  16582777.664    88488802.374        2565.509          47.000  
> 2019 11 26 15  6  4.9860000  0 21                     
G30  16294659.644    85629019.342        -698.488          53.000  
G13  17080661.112    89759464.794        1872.220          49.000  
G 7  17743967.236    93245159.664       -2539.303          49.000  
G 5  17995060.740    94564687.318       -2571.640          49.000  
G28  17984950.555    94511545.614        2375.876          46.000  
G 8  19142864.343   100596427.432         400.229          43.000  
G15  19258958.556   101206510.075        3117.362          42.000  
E30  21535113.810   113167744.607       -3105.357          28.000  
E19  19526258.023   102611163.369        -150.535          43.000  
E27  19556554.236   102770367.485        -854.845          48.000  
E21  20795266.641   109279863.588        2020.125          45.000  
E 4  22765370.782   119632796.464        2433.280          39.000  
G21  20967276.799   110183783.672        -858.466          25.000  
G 9  21615278.995   113589046.772       -4111.752          37.000  
E20  15951188.525    83824065.948       -2619.965          38.000  
R14  16552773.054    88235538.871       -3289.203          49.000  
R15  15162656.665    81024586.260         681.792          52.000  
R 5  15551480.225    83131535.369       -2172.721          53.000  
R23  18265245.978    97706724.219        1318.984          45.000  
R16  18349224.822    98018198.874        3801.070          40.000  
R 6  16582296.954    88486237.518        2564.331          47.000  
> 2019 11 26 15  6  5.9860000  0 21                     
G30  16294792.519    85629717.531        -698.728          53.000  
G13  17080304.735    89757592.212        1872.085          49.000  
G 7  17744450.503    93247698.635       -2539.438          49.000  
G 5  17995550.149    94567258.658       -2571.845          49.000  
G28  17984498.307    94509169.438        2375.544          46.000  
G 8  19142788.269   100596027.026         399.898          43.000  
G15  19258365.415   101203392.205        3117.539          43.000  
E30  21535705.494   113170849.311       -3104.760          28.000  
E19  19526286.921   102611313.707        -150.668          43.000  
E27  19556716.802   102771222.065        -854.966          48.000  
E21  20794882.213   109277843.093        2020.151          45.000  
E 4  22764907.627   119630362.735        2433.417          39.000  
G21  20967440.953   110184641.922        -858.693          25.000  
G 9  21616061.131   113593158.080       -4111.461          37.000  
E20  15951687.217    83826685.925       -2620.567          38.000  
R14  16553389.763    88238827.684       -3289.307          49.000  
R15  15162529.218    81023904.304         681.302          52.000  
R 5  15551886.562    83133707.968       -2173.254          53.000  
R23  18264999.337    97705405.112        1318.421          45.000  
R16  18348512.801    98014397.338        3801.001          40.000  
R 6  16581816.445    88483672.884        2564.117          47.000  
> 2019 11 26 15  6  6.9860000  0 21                     
G30  16294925.882    85630416.825        -699.573          53.000  
G13  17079948.724    89755720.663        1871.254          49.000  
G 7  17744933.778    93250238.526       -2540.110          50.000  
G 5  17996039.750    94569831.129       -2572.764          49.000  
G28  17984046.320    94506794.243        2374.810          46.000  
G 8  19142712.090   100595627.856         398.891          43.000  
G15  19257772.570   101200275.183        3116.815          43.000  
E30  21536294.299   113173954.771       -3105.778          28.000  
E19  19526315.818   102611465.055        -151.613          43.000  
E27  19556879.656   102772077.652        -855.860          48.000  
E21  20794497.793   109275823.496        2019.277          45.000  
E 4  22764444.681   119627929.754        2432.845          39.000  
G21  20967604.496   110185501.271        -859.791          25.000  
G 9  21616843.416   113597270.008       -4112.017          37.000  
E20  15952185.822    83829306.735       -2621.125          38.000  
R14  16554006.741    88242117.568       -3290.161          49.000  
R15  15162401.857    81023223.704         680.163          52.000  
R 5  15552293.440    83135881.935       -2174.435          53.000  
R23  18264752.879    97704087.464        1317.191          45.000  
R16  18347801.198    98010596.656        3800.593          40.000  
R 6  16581336.084    88481109.468        2562.994          47.000  
> 2019 11 26 15  6  7.9860000  0 21                     
G30  16295058.853    85631116.555        -700.186          53.000  
G13  17079592.530    89753849.468        1870.857          49.000  
G 7  17745417.070    93252778.662       -2540.499          49.000  
G 5  17996529.272    94572404.025       -2573.496          49.000  
G28  17983594.106    94504419.365        2374.381          46.000  
G 8  19142636.365   100595229.261         398.058          43.000  
G15  19257179.602   101197158.321        3116.458          43.000  
E30  21536886.141   113177060.293       -3105.805          28.000  
E19  19526344.707   102611616.719        -151.924          43.000  
E27  19557042.694   102772933.551        -856.236          48.000  
E21  20794113.217   109273804.099        2019.063          45.000  
E 4  22763981.587   119625496.826        2432.563          39.000  
G21  20967770.657   110186361.003        -859.702          25.000  
G 9  21617625.831   113601381.823       -4112.132          36.000  
E20  15952684.357    83831927.724       -2621.288          38.000  
R14  16554623.868    88245407.817       -3290.692          48.000  
R15  15162274.741    81022543.742         679.397          52.000  
R 5  15552700.248    83138056.588       -2175.315          53.000  
R23  18264506.674    97702770.564        1316.280          45.000  
R16  18347089.509    98006796.124        3799.992          40.000  
R 6  16580855.697    88478546.551        2562.268          47.000  
> 2019 11 26 15  6  8.9860000  0 21                     
G30  16295192.164    85631817.459        -701.369          53.000  
G13  17079236.616    89751979.396        1869.627          49.000  
G 7  17745900.607    93255319.806       -2541.520          49.000  
G 5  17997019.353    94574978.120       -2574.584          49.000  
G28  17983142.460    94502045.562        2373.502          46.000  
G 8  19142560.884   100594832.002         396.737          43.000  
G15  19256586.478   101194042.380        3115.599          43.000  
E30  21537479.222   113180166.618       -3106.859          28.000  
E19  19526373.840   102611769.473        -153.098          43.000  
E27  19557205.574   102773790.540        -857.376          48.000  
E21  20793729.085   109271785.671        2018.218          45.000  
E 4  22763518.790   119623064.702        2431.966          38.000  
G21  20967938.197   110187221.951        -861.548          25.000  
G 9  21618408.177   113605494.314       -4112.971          36.000  
E20  15953183.416    83834549.700       -2622.649          38.000  
R14  16555241.318    88248699.194       -3291.742          48.000  
R15  15162147.730    81021865.185         677.949          52.000  
R 5  15553107.414    83140232.718       -2176.728          53.000  
R23  18264260.739    97701455.195        1314.588          45.000  
R16  18346378.282    98002996.521        3799.262          40.000  
R 6  16580375.790    88475984.922        2561.011          47.000  
> 2019 11 26 15  6  9.9860000  0 21                     
G30  16295325.754    85632518.486        -701.025          53.000  
G13  17078880.745    89750109.349        1870.070          49.000  
G 7  17746383.969    93257860.883       -2540.920          49.000  
G 5  17997509.294    94577552.319       -2574.321          49.000  
G28  17982690.796    94499671.766        2373.784          46.000  
G 8  19142485.342   100594434.993         397.130          43.000  
G15  19255993.564   101190926.294        3116.192          43.000  
E30  21538069.336   113183272.661       -3105.754          29.000  
E19  19526402.895   102611922.230        -152.705          43.000  
E27  19557368.673   102774647.533        -857.038          48.000  
E21  20793345.032   109269767.139        2018.546          46.000  
E 4  22763055.766   119620632.345        2432.592          39.000  
G21  20968100.580   110188083.042        -862.034          25.000  
G 9  21619190.767   113609606.395       -4111.512          35.000  
E20  15953682.667    83837171.494       -2621.677          39.000  
R14  16555858.523    88251990.615       -3291.351          48.000  
R15  15162020.823    81021186.937         678.175          52.000  
R 5  15553514.964    83142409.239       -2176.630          53.000  
R23  18264014.979    97700140.245        1314.751          45.000  
R16  18345666.941    97999196.813        3799.677          40.000  
R 6  16579895.673    88473423.490        2561.438          47.000  
> 2019 11 26 15  6 10.9860000  0 21                     
G30  16295459.554    85633220.426        -701.994          53.000  
G13  17078525.031    89748240.162        1869.186          49.000  
G 7  17746867.655    93260402.709       -2541.834          49.000  
G 5  17997999.706    94580127.468       -2575.183          49.000  
G28  17982239.106    94497298.783        2372.988          46.000  
G 8  19142409.817   100594039.065         395.808          43.000  
G15  19255400.963   101187810.864        3115.537          43.000  
E30  21538659.293   113186379.271       -3106.518          28.000  
E19  19526432.307   102612075.806        -153.555          43.000  
E27  19557531.980   102775505.344        -857.925          48.000  
E21  20792961.084   109267749.312        2017.850          46.000  
E 4  22762592.995   119618200.539        2431.991          38.000  
G21  20968261.192   110188944.979        -862.756          25.000  
G 9  21619973.060   113613718.882       -4112.129          35.000  
E20  15954181.708    83839794.009       -2622.181          39.000  
R14  16556475.947    88255282.904       -3292.230          48.000  
R15  15161894.344    81020509.844         676.920          52.000  
R 5  15553922.243    83144586.968       -2177.890          53.000  
R23  18263769.638    97698826.571        1313.453          45.000  
R16  18344955.827    97995397.770        3799.414          40.000  
R 6  16579416.045    88470863.091        2560.297          47.000  
> 2019 11 26 15  6 11.9860000  0 20                     
G30  16295592.899    85633922.925        -703.116          53.000  
G13  17078169.561    89746371.462        1868.037          49.000  
G 7  17747351.584    93262944.900       -2542.670          49.000  
G 5  17998489.970    94582703.173       -2576.396          49.000  
G28  17981787.459    94494926.234        2372.089          46.000  
G 8  19142334.432   100593643.812         394.628          43.000  
G15  19254808.380   101184695.724        3114.545          43.000  
E30  21539250.602   113189486.056       -3106.721          29.000  
E19  19526461.527   102612229.832        -154.481          43.000  
E27  19557695.175   102776363.594        -858.749          48.000  
E21  20792576.996   109265731.804        2017.044          46.000  
E 4  22762130.381   119615768.932        2431.390          38.000  
G 9  21620755.728   113617831.402       -4112.459          34.000  
E20  15954680.627    83842416.844       -2623.591          39.000  
R14  16557093.257    88258575.692       -3293.316          48.000  
R15  15161767.577    81019833.533         675.643          52.000  
R 5  15554330.011    83146765.528       -2179.350          53.000  
R23  18263524.645    97697513.781        1312.011          46.000  
R16  18344244.277    97991599.029        3798.138          40.000  
R 6  16578936.295    88468303.332        2559.161          47.000  
> 2019 11 26 15  6 12.9860000  0 20                     
G30  16295726.943    85634626.338        -703.841          53.000  
G13  17077813.995    89744503.587        1867.511          49.000  
G 7  17747835.383    93265487.826       -2543.306          49.000  
G 5  17998980.565    94585279.796       -2577.036          49.000  
G28  17981336.083    94492554.503        2371.298          46.000  
G 8  19142259.483   100593249.633         393.729          43.000  
G15  19254215.910   101181581.234        3114.206          43.000  
E30  21539843.185   113192593.370       -3107.649          29.000  
E19  19526490.800   102612384.677        -155.156          43.000  
E27  19557858.875   102777222.659        -859.393          48.000  
E21  20792193.510   109263715.013        2016.474          46.000  
E 4  22761667.749   119613337.864        2431.159          38.000  
G 9  21621538.414   113621944.345       -4113.124          33.000  
E20  15955179.983    83845040.327       -2623.632          39.000  
R14  16557711.187    88261869.356       -3294.128          48.000  
R15  15161641.307    81019158.359         674.595          52.000  
R 5  15554737.614    83148945.281       -2180.379          53.000  
R23  18263279.601    97696202.244        1310.969          46.000  
R16  18343533.957    97987800.906        3797.751          40.000  
R 6  16578456.659    88465744.591        2558.282          47.000  
> 2019 11 26 15  6 13.9860000  0 20                     
G30  16295860.839    85635330.539        -704.548          53.000  
G13  17077459.032    89742636.433        1866.813          49.000  
G 7  17748319.478    93268031.344       -2543.700          49.000  
G 5  17999471.239    94587857.210       -2577.674          49.000  
G28  17980884.986    94490183.421        2370.834          46.000  
G 8  19142184.561   100592856.363         392.694          43.000  
G15  19253623.440   101178467.264        3113.793          43.000  
E30  21540433.517   113195701.067       -3107.684          28.000  
E19  19526520.675   102612540.201        -155.886          43.000  
E27  19558022.410   102778082.397        -859.958          48.000  
E21  20791809.980   109261698.769        2016.085          46.000  
E 4  22761204.996   119610907.215        2430.624          38.000  
G 9  21622321.240   113626057.526       -4113.007          33.000  
E20  15955679.452    83847664.385       -2624.116          39.000  
R14  16558329.143    88265163.744       -3294.702          48.000  
R15  15161515.203    81018484.171         673.747          53.000  
R 5  15555145.399    83151126.059       -2181.123          53.000  
R23  18263034.879    97694891.823        1310.101          46.000  
R16  18342823.061    97984003.315        3797.021          40.000  
R 6  16577977.415    88463186.723        2557.611          46.000  
> 2019 11 26 15  6 14.9860000  0 20                     
G30  16295995.214    85636035.354        -705.165          53.000  
G13  17077103.719    89740769.831        1866.263          49.000  
G 7  17748803.573    93270575.330       -2544.330          49.000  
G 5  17999962.018    94590435.262       -2578.423          49.000  
G28  17980433.689    94487812.876        2370.177          46.000  
G 8  19142109.778   100592463.849         392.099          43.000  
G15  19253031.066   101175353.676        3113.199          43.000  
E30  21541023.125   113198809.034       -3107.948          28.000  
E19  19526550.244   102612696.232        -156.380          43.000  
E27  19558185.831   102778942.663        -860.594          48.000  
E21  20791426.668   109259682.933        2015.578          46.000  
E 4  22760742.111   119608476.843        2430.091          38.000  
G 9  21623104.257   113630170.785       -4112.428          33.000  
E20  15956178.955    83850288.842       -2624.923          39.000  
R14  16558947.247    88268458.690       -3295.428          48.000  
R15  15161389.561    81017810.836         672.848          53.000  
R 5  15555553.202    83153307.703       -2182.086          53.000  
R23  18262790.584    97693582.377        1308.820          46.000  
R16  18342112.270    97980206.066        3797.059          41.000  
R 6  16577498.310    88460629.566        2556.726          46.000  
> 2019 11 26 15  6 15.9860000  0 20                     
G30  16296129.319    85636740.594        -705.409          53.000  
G13  17076748.616    89738903.584        1866.076          49.000  
G 7  17749287.808    93273119.539       -2544.267          49.000  
G 5  18000452.762    94593013.753       -2578.693          49.000  
G28  17979982.505    94485442.626        2370.181          46.000  
G 8  19142035.501   100592071.912         391.626          43.000  
G15  19252438.649   101172240.231        3113.297          43.000  
E30  21541614.862   113201916.995       -3107.441          28.000  
E19  19526580.224   102612852.588        -156.456          43.000  
E27  19558349.959   102779803.242        -860.629          48.000  
E21  20791043.121   109257667.305        2015.657          46.000  
E 4  22760279.375   119606046.504        2430.194          39.000  
G 9  21623887.301   113634284.016       -4112.973          33.000  
E20  15956678.407    83852913.431       -2624.488          39.000  
R14  16559565.211    88271753.971       -3295.453          48.000  
R15  15161263.728    81017138.142         672.385          52.000  
R 5  15555961.319    83155490.042       -2182.654          53.000  
R23  18262545.880    97692273.653        1308.434          46.000  
R16  18341401.488    97976409.009        3797.482          40.000  
R 6  16577019.031    88458072.917        2556.482          46.000  
> 2019 11 26 15  6 16.9860000  0 20                     
G30  16296263.738    85637446.342        -705.903          53.000  
G13  17076393.617    89737037.767        1865.704          49.000  
G 7  17749771.990    93275664.078       -2544.522          49.000  
G 5  18000943.087    94595592.745       -2579.253          49.000  
G28  17979531.547    94483072.770        2369.732          46.000  
G 8  19141961.146   100591680.628         391.033          43.000  
G15  19251846.092   101169127.021        3113.313          43.000  
E30  21542209.103   113205025.177       -3108.241          28.000  
E19  19526609.915   102613009.348        -156.749          43.000  
E27  19558513.651   102780664.220        -861.132          48.000  
E21  20790659.531   109255651.966        2015.161          46.000  
E 4  22759816.726   119603616.318        2430.041          39.000  
G 9  21624670.179   113638397.239       -4112.797          32.000  
E20  15957177.815    83855538.333       -2625.078          39.000  
R14  16560183.254    88275049.688       -3295.795          48.000  
R15  15161137.859    81016466.178         671.741          52.000  
R 5  15556369.322    83157673.174       -2183.436          53.000  
R23  18262301.385    97690965.761        1307.578          46.000  
R16  18340690.514    97972612.240        3796.989          40.000  
R 6  16576540.232    88455516.867        2555.902          46.000  
> 2019 11 26 15  6 17.9860000  0 20                     
G30  16296398.079    85638152.491        -706.497          53.000  
G13  17076038.680    89735172.278        1865.283          49.000  
G 7  17750256.059    93278208.838       -2544.938          49.000  
G 5  18001433.891    94598172.137       -2579.701          49.000  
G28  17979080.922    94480703.204        2369.213          46.000  
G 8  19141886.625   100591289.868         390.589          43.000  
G15  19251253.683   101166013.960        3112.839          43.000  
E30  21542800.439   113208133.309       -3108.133          28.000  
E19  19526640.087   102613166.396        -157.151          43.000  
E27  19558677.683   102781525.484        -861.451          48.000  
E21  20790276.193   109253636.797        2014.970          46.000  
E 4  22759354.252   119601186.140        2430.094          38.000  
G 9  21625452.978   113642510.327       -4112.893          32.000  
E20  15957677.510    83858163.368       -2625.582          39.000  
R14  16560801.795    88278345.778       -3296.344          48.000  
R15  15161011.956    81015794.811         670.915          52.000  
R 5  15556777.666    83159856.985       -2184.181          53.000  
R23  18262056.977    97689658.582        1306.815          46.000  
R16  18339979.985    97968815.617        3796.550          41.000  
R 6  16576061.311    88452961.318        2555.292          46.000  
> 2019 11 26 15  6 18.9860000  0 20                     
G30  16296532.245    85638859.104        -706.899          53.000  
G13  17075683.812    89733307.182        1864.902          50.000  
G 7  17750740.146    93280753.874       -2545.131          49.000  
G 5  18001924.609    94600752.014       -2580.083          49.000  
G28  17978630.348    94478333.981        2368.946          46.000  
G 8  19141812.418   100590899.714         389.932          43.000  
G15  19250661.266   101162901.101        3112.736          43.000  
E30  21543390.806   113211241.566       -3108.253          28.000  
E19  19526670.066   102613323.815        -157.589          43.000  
E27  19558841.584   102782387.113        -861.715          48.000  
E21  20789892.733   109251621.875        2014.802          46.000  
E 4  22758891.743   119598756.091        2429.865          38.000  
G 9  21626235.551   113646623.393       -4113.333          33.000  
E20  15958177.171    83860788.604       -2625.020          39.000  
R14  16561420.309    88281642.297       -3296.716          48.000  
R15  15160886.009    81015124.119         670.257          52.000  
R 5  15557186.176    83162041.527       -2184.908          53.000  
R23  18261812.770    97688352.203        1306.026          46.000  
R16  18339269.342    97965019.189        3796.618          41.000  
R 6  16575582.381    88450406.346        2554.755          46.000  
> 2019 11 26 15  6 19.9860000  0 21                     
G30  16296666.908    85639566.075        -707.183          53.000  
G13  17075328.744    89731442.376        1864.504          49.000  
G 7  17751224.634    93283299.102       -2545.373          49.000  
G 5  18002415.283    94603332.261       -2580.406          49.000  
G28  17978179.661    94475965.013        2368.757          46.000  
G 8  19141738.298   100590510.060         389.369          43.000  
G15  19250068.726   101159788.340        3112.703          43.000  
E30  21543982.071   113214349.788       -3108.291          28.000  
E19  19526699.714   102613481.500        -158.014          43.000  
E27  19559005.555   102783249.003        -862.131          48.000  
E21  20789509.143   109249607.098        2014.611          46.000  
E 4  22758429.434   119596326.034        2429.882          39.000  
G21  20969727.978   110196663.9201       -867.668          26.000  
G 9  21627018.306   113650736.269       -4112.915          34.000  
E20  15958676.719    83863414.027       -2625.566          39.000  
R14  16562039.172    88284939.122       -3296.972          48.000  
R15  15160760.289    81014454.026         669.702          52.000  
R 5  15557595.078    83164226.679       -2185.503          53.000  
R23  18261568.851    97687046.506        1305.451          46.000  
R16  18338558.830    97961222.872        3796.076          41.000  
R 6  16575103.748    88447851.834        2554.187          46.000  
> 2019 11 26 15  6 20.9860000  0 21                     
G30  16296801.720    85640273.690        -707.985          53.000  
G13  17074973.999    89729578.133        1863.740          50.000  
G 7  17751709.191    93285844.785       -2546.095          49.000  
G 5  18002906.350    94605913.166       -2581.410          49.000  
G28  17977728.887    94473596.577        2368.072          46.000  
G 8  19141664.335   100590121.183         388.362          43.000  
G15  19249476.422   101156675.952        3112.206          43.000  
E30  21544572.927   113217458.281       -3108.494          28.000  
E19  19526730.374   102613639.701        -158.572          43.000  
E27  19559169.945   102784111.418        -862.755          48.000  
E21  20789125.901   109247592.749        2014.006          46.000  
E 4  22757966.707   119593896.244        2429.433          39.000  
G21  20969892.473   110197531.336        -867.678          26.000  
G 9  21627801.088   113654849.324       -4113.404          35.000  
E20  15959176.083    83866039.827       -2626.487          39.000  
R14  16562657.940    88288236.504       -3297.857          48.000  
R15  15160634.691    81013784.792         668.657          52.000  
R 5  15558003.884    83166412.726       -2186.677          53.000  
R23  18261325.054    97685741.786        1304.082          46.000  
R16  18337848.519    97957426.904        3795.813          41.000  
R 6  16574625.062    88445298.043        2553.223          46.000  
> 2019 11 26 15  6 21.9860000  0 21                     
G30  16296936.514    85640981.913        -708.632          53.000  
G13  17074619.375    89727714.424        1863.339          49.000  
G 7  17752193.697    93288390.882       -2546.351          49.000  
G 5  18003397.242    94608494.682       -2582.002          49.000  
G28  17977278.227    94471228.635        2367.648          46.000  
G 8  19141590.433   100589733.050         387.718          43.000  
G15  19248884.345   101153563.922        3111.618          43.000  
E30  21545165.720   113220566.978       -3108.698          28.000  
E19  19526760.258   102613798.421        -158.969          43.000  
E27  19559334.003   102784974.349        -863.323          48.000  
E21  20788742.764   109245578.786        2013.587          46.000  
E 4  22757504.572   119591466.716        2429.322          39.000  
G21  20970060.152   110198399.408        -868.463          26.000  
G 9  21628583.809   113658962.434       -4113.723          34.000  
E20  15959675.770    83868665.949       -2625.909          38.000  
R14  16563276.951    88291534.407       -3298.321          48.000  
R15  15160509.512    81013116.360         667.902          52.000  
R 5  15558412.987    83168599.645       -2187.499          53.000  
R23  18261081.423    97684437.988        1303.447          46.000  
R16  18337138.243    97953631.296        3795.260          41.000  
R 6  16574146.847    88442744.945        2552.789          46.000  
> 2019 11 26 15  6 22.9860000  0 22                     
G30  16297071.334    85641690.692        -709.015          51.000  
G13  17074265.049    89725851.205        1862.958          48.000  
G 7  17752678.150    93290937.369       -2546.612          48.000  
G 5  18003888.605    94611076.759       -2582.317          47.000  
G28  17976827.479    94468861.139        2367.292          44.000  
G 8  19141516.811   100589345.628         387.009          41.000  
G15  19248292.050   101150452.172        3111.603          42.000  
E30  21545759.306   113223675.852       -3108.862          26.000  
E19  19526790.403   102613957.591        -159.504          42.000  
E27  19559498.201   102785837.732        -863.757          46.000  
E21  20788359.705   109243565.166        2013.390          44.000  
E 4  22757042.508   119589037.362        2429.008          37.000  
G27  19812430.794                3      -1719.672          34.000  
G21  20970226.444   110199267.980        -868.700          27.000  
G 9  21629366.477   113663075.578       -4112.952          31.000  
E20  15960175.684    83871292.461       -2626.877          37.000  
R14  16563895.919    88294832.820       -3298.779          42.000  
R15  15160384.577    81012448.708         667.231          46.000  
R 5  15558822.378    83170787.407       -2188.146          47.000  
R23  18260837.809    97683135.121        1302.341          40.000  
R16  18336428.150    97949836.012        3794.905          35.000  
R 6  16573668.554    88440192.502        2552.130          40.000  
> 2019 11 26 15  6 23.9860000  0 20                     
G30  16297206.338    85642400.404        -710.387          54.000  
G13  17073910.539    89723988.838        1861.778          50.000  
G 7  17753162.856    93293484.600       -2547.808          50.000  
G 5  18004380.317    94613659.768       -2583.475          50.000  
G28  17976376.827    94466494.448        2366.241          47.000  
G 8  19141443.136   100588959.269         385.752          44.000  
G15  19247700.278   101147341.097        3110.641          44.000  
E30  21546343.444   113226785.317       -3109.551          27.000  
E19  19526820.793   102614117.580        -160.409          44.000  
E27  19559662.757   102786701.910        -864.581          49.000  
E21  20787976.647   109241552.234        2012.618          47.000  
E 4  22756580.671   119586608.556        2428.548          40.000  
G21  20970393.783   110200137.481        -869.753          27.000  
E20  15960675.746    83873919.622       -2627.706          39.000  
R14  16564514.826    88298132.102       -3299.829          43.000  
R15  15160259.738    81011782.218         665.729          47.000  
R 5  15559231.647    83172976.377       -2189.788          48.000  
R23  18260594.405    97681833.490        1300.819          40.000  
R16  18335717.551    97946041.410        3794.204          35.000  
R 6  16573190.418    88437641.056        2550.714          42.000  
> 2019 11 26 15  6 24.9860000  0 21                     
G30  16297341.629    85643110.760        -710.555          54.000  
G13  17073556.107    89722127.041        1861.574          50.000  
G 7  17753647.797    93296032.295       -2547.922          50.000  
G 5  18004871.759    94616243.434       -2583.869          50.000  
G28  17975926.673    94464128.300        2365.844          47.000  
G 8  19141369.959   100588573.706         385.317          44.000  
G15  19247108.558   101144230.401        3110.778          45.000  
E30  21546938.260   113229895.022       -3109.645          28.000  
E19  19526851.208   102614278.120        -160.699          44.000  
E27  19559827.068   102787566.647        -865.025          49.000  
E21  20787593.589   109239539.745        2012.389          47.000  
E 4  22756118.458   119584180.054        2428.528          40.000  
G21  20970560.424   110201007.603        -870.414          27.000  
G 9  21630932.137   113671314.8951      -4115.226          33.000  
E20  15961175.581    83876547.169       -2627.571          39.000  
R14  16565133.846    88301431.996       -3300.329          43.000  
R15  15160135.248    81011116.622         665.215          48.000  
R 5  15559641.107    83175166.249       -2190.371          48.000  
R23  18260351.402    97680532.857        1300.401          40.000  
R16  18335007.371    97942247.211        3794.271          35.000  
R 6  16572712.570    88435090.344        2550.427          42.000  
> 2019 11 26 15  6 25.9860000  0 21                     
G30  16297476.825    85643821.481        -711.105          54.000  
G13  17073201.877    89720265.544        1861.134          50.000  
G 7  17754132.634    93298580.172       -2548.303          50.000  
G 5  18005363.462    94618827.482       -2584.444          49.000  
G28  17975476.631    94461762.413        2365.476          46.000  
G 8  19141296.799   100588188.666         384.537          43.000  
G15  19246516.935   101141119.823        3110.275          44.000  
E30  21547529.256   113233004.700       -3109.762          28.000  
E19  19526881.764   102614438.920        -161.121          44.000  
E27  19559991.920   102788431.640        -865.265          48.000  
E21  20787210.687   109237527.407        2012.088          46.000  
E 4  22755656.350   119581751.567        2427.970          39.000  
G21  20970725.982   110201878.079        -870.633          27.000  
G 9  21631713.593   113675428.345       -4112.354          32.000  
E20  15961675.678    83879174.882       -2628.034          39.000  
R14  16565753.059    88304732.200       -3300.586          43.000  
R15  15160010.881    81010451.622         664.493          48.000  
R 5  15560050.873    83177356.751       -2191.066          48.000  
R23  18260108.128    97679232.933        1299.454          40.000  
R16  18334297.487    97938453.143        3793.596          35.000  
R 6  16572234.749    88432540.097        2549.689          42.000  
> 2019 11 26 15  6 26.9860000  0 21                     
G30  16297612.073    85644532.547        -711.521          54.000  
G13  17072847.794    89718404.321        1860.871          50.000  
G 7  17754617.235    93301128.216       -2548.500          50.000  
G 5  18005855.131    94621411.864       -2584.866          49.000  
G28  17975026.730    94459396.757        2365.148          46.000  
G 8  19141223.333   100587804.121         383.640          43.000  
G15  19245925.154   101138009.321        3110.153          44.000  
E30  21548122.109   113236114.387       -3109.727          28.000  
E19  19526912.389   102614599.952        -161.247          44.000  
E27  19560156.345   102789296.874        -865.621          48.000  
E21  20786827.445   109235515.191        2011.848          46.000  
E 4  22755194.137   119579323.028        2428.238          39.000  
G21  20970892.588   110202748.865        -870.929          27.000  
G 9  21632495.746   113679541.793       -4114.861          32.000  
E20  15962175.670    83881802.692       -2628.494          39.000  
R14  16566372.184    88308032.657       -3300.757          44.000  
R15  15159886.688    81009787.136         663.912          48.000  
R 5  15560461.276    83179547.865       -2191.554          48.000  
R23  18259865.160    97677933.691        1298.479          40.000  
R16  18333587.167    97934659.096        3793.915          35.000  
R 6  16571756.813    88429990.270        2549.243          42.000  
> 2019 11 26 15  6 27.9860000  0 21                     
G30  16297747.513    85645243.954        -711.260          54.000  
G13  17072493.755    89716543.376        1861.132          50.000  
G 7  17755101.889    93303676.428       -2548.004          50.000  
G 5  18006346.878    94623996.604       -2584.661          49.000  
G28  17974576.567    94457031.333        2365.660          46.000  
G 8  19141150.365   100587420.030         384.077          43.000  
G15  19245333.496   101134898.895        3110.761          44.000  
E30  21548712.878   113239224.012       -3109.312          29.000  
E19  19526943.241   102614761.250        -161.094          44.000  
E27  19560321.153   102790162.355        -865.246          48.000  
E21  20786444.780   109233503.103        2012.351          46.000  
E 4  22754731.881   119576894.501        2428.580          39.000  
G21  20971061.114   110203620.040        -871.142          27.000  
G 9  21633278.415   113683654.988       -4113.145          32.000  
E20  15962675.741    83884430.566       -2627.334          39.000  
R14  16566991.457    88311333.377       -3300.641          44.000  
R15  15159762.241    81009123.191         663.896          48.000  
R 5  15560871.513    83181739.576       -2191.768          48.000  
R23  18259622.445    97676635.119        1298.617          40.000  
R16  18332877.266    97930865.130        3794.732          35.000  
R 6  16571279.175    88427440.904        2549.292          42.000  
> 2019 11 26 15  6 28.9860000  0 21                     
G30  16297883.022    85645955.678        -712.024          53.000  
G13  17072139.682    89714682.671        1860.406          49.000  
G 7  17755587.136    93306224.763       -2548.468          49.000  
G 5  18006838.791    94626581.662       -2585.311          49.000  
G28  17974126.369    94454666.102        2364.983          46.000  
G 8  19141077.336   100587036.400         383.477          42.000  
G15  19244741.672   101131788.521        3110.346          44.000  
E30  21549304.545   113242333.580       -3109.812          28.000  
E19  19526973.979   102614922.750        -161.783          43.000  
E27  19560485.761   102791028.041        -866.002          48.000  
E21  20786061.817   109231491.110        2011.725          46.000  
E 4  22754269.686   119574465.907        2428.330          39.000  
G21  20971229.840   110204491.502        -872.242          27.000  
G 9  21634063.474   113687767.993       -4113.660          31.000  
E20  15963175.646    83887058.577       -2628.245          38.000  
R14  16567610.800    88314634.330       -3301.221          44.000  
R15  15159638.144    81008459.792         663.017          48.000  
R 5  15561281.785    83183931.856       -2192.691          48.000  
R23  18259380.114    97675337.180        1297.458          40.000  
R16  18332167.182    97927071.262        3793.613          35.000  
R 6  16570801.510    88424891.936        2548.688          42.000  
> 2019 11 26 15  6 29.9860000  0 21                     
G30  16298018.584    85646667.984        -712.682          53.000  
G13  17071785.826    89712822.471        1859.891          49.000  
G 7  17756072.261    93308773.502       -2548.932          49.000  
G 5  18007330.652    94629167.312       -2586.040          49.000  
G28  17973676.362    94452301.346        2364.376          46.000  
G 8  19141004.342   100586653.511         382.429          42.000  
G15  19244150.136   101128678.473        3110.001          44.000  
E30  21549897.285   113245443.325       -3109.999          28.000  
E19  19527004.526   102615084.715        -162.378          43.000  
E27  19560650.614   102791894.192        -866.622          48.000  
E21  20785679.134   109229479.469        2011.343          45.000  
E 4  22753807.395   119572037.516        2428.243          38.000  
G21  20971397.353   110205363.472        -872.554          27.000  
G 9  21634847.320   113691881.020       -4112.776          31.000  
E20  15963675.604    83889686.900       -2628.811          38.000  
R14  16568230.291    88317935.828       -3301.855          44.000  
R15  15159514.082    81007797.218         662.121          48.000  
R 5  15561692.354    83186124.989       -2193.708          48.000  
R23  18259137.730    97674040.157        1296.325          40.000  
R16  18331457.080    97923277.729        3793.229          35.000  
R 6  16570323.889    88422343.639        2547.955          43.000  
> 2019 11 26 15  6 30.9860000  0 21                     
G30  16298154.295    85647380.860        -712.879          53.000  
G13  17071431.761    89710962.762        1859.839          49.000  
G 7  17756557.350    93311322.637       -2548.990          49.000  
G 5  18007822.564    94631753.531       -2586.137          48.000  
G28  17973226.452    94449937.040        2364.538          46.000  
G 8  19140931.225   100586271.323         382.152          42.000  
G15  19243558.207   101125568.746        3109.870          44.000  
E30  21550486.500   113248553.278       -3109.617          28.000  
E19  19527035.203   102615247.146        -162.268          43.000  
E27  19560815.597   102792760.810        -866.544          48.000  
E21  20785296.119   109227468.189        2011.349          45.000  
E 4  22753345.653   119569609.355        2428.414          38.000  
G21  20971564.055   110206235.990        -871.652          27.000  
G 9  21635628.837   113695994.181       -4112.277          31.000  
E20  15964175.841    83892315.550       -2628.355          38.000  
R14  16568849.696    88321237.880       -3302.087          44.000  
R15  15159390.142    81007135.441         661.665          48.000  
R 5  15562102.958    83188318.960       -2194.177          48.000  
R23  18258895.670    97672744.021        1295.986          40.000  
R16  18330747.092    97919484.507        3793.777          36.000  
R 6  16569846.276    88419795.998        2547.626          43.000  
> 2019 11 26 15  6 31.9860000  0 21                     
G30  16298289.970    85648093.933        -713.075          53.000  
G13  17071077.766    89709103.205        1859.529          49.000  
G 7  17757042.309    93313871.782       -2549.071          49.000  
G 5  18008314.338    94634339.962       -2586.257          48.000  
G28  17972776.533    94447572.836        2364.222          46.000  
G 8  19140858.423   100585889.503         381.443          42.000  
G15  19242966.557   101122458.931        3110.109          44.000  
E30  21551077.696   113251663.084       -3109.792          28.000  
E19  19527066.256   102615409.698        -162.461          43.000  
E27  19560980.335   102793627.521        -866.555          48.000  
E21  20784913.375   109225456.892        2011.458          45.000  
E 4  22752883.676   119567181.016        2428.409          39.000  
G21  20971728.593   110207108.768        -872.872          27.000  
G 9  21636411.636   113700106.979       -4112.375          31.000  
E20  15964675.868    83894944.171       -2628.379          38.000  
R14  16569469.650    88324540.067       -3302.002          44.000  
R15  15159266.297    81006474.069         661.371          48.000  
R 5  15562513.823    83190513.410       -2194.573          48.000  
R23  18258653.792    97671448.389        1295.608          40.000  
R16  18330036.920    97915691.222        3793.552          36.000  
R 6  16569368.864    88417248.652        2547.009          43.000  
> 2019 11 26 15  6 32.9860000  0 21                     
G30  16298425.550    85648806.527        -712.998          53.000  
G13  17070723.780    89707243.086        1859.728          49.000  
G 7  17757527.103    93316420.259       -2548.844          49.000  
G 5  18008806.303    94636925.925       -2586.443          48.000  
G28  17972326.501    94445208.038        2364.355          46.000  
G 8  19140785.498   100585507.303         381.569          42.000  
G15  19242374.716   101119348.388        3110.374          44.000  
E30  21551672.103   113254771.970       -3108.865          28.000  
E19  19527097.125   102615571.649        -162.400          43.000  
E27  19561144.952   102794493.661        -866.557          48.000  
E21  20784530.421   109223444.891        2011.776          45.000  
E 4  22752421.612   119564751.825        2429.003          38.000  
G21  20971893.498   110207981.002        -872.901          27.000  
G 9  21637191.225   113704218.854       -4112.285          32.000  
E20  15965176.052    83897572.060       -2628.054          38.000  
R14  16570089.010    88327841.666       -3301.947          44.000  
R15  15159142.584    81005812.406         661.168          48.000  
R 5  15562924.401    83192707.643       -2194.749          48.000  
R23  18258411.871    97670152.603        1294.974          40.000  
R16  18329326.697    97911897.169        3793.482          36.000  
R 6  16568891.426    88414700.877        2547.284          43.000  
> 2019 11 26 15  6 33.9860000  0 21                     
G30  16298561.356    85649520.290        -714.196          53.000  
G13  17070370.125    89705384.059        1858.619          49.000  
G 7  17758012.201    93318969.724       -2549.894          49.000  
G 5  18009298.469    94639513.046       -2587.526          48.000  
G28  17971876.686    94442844.287        2363.452          46.000  
G 8  19140713.220   100585126.410         380.264          42.000  
G15  19241782.795   101116238.732        3109.375          44.000  
E30  21552262.662   113257881.692       -3110.332          28.000  
E19  19527128.239   102615734.663        -163.441          43.000  
E27  19561310.188   102795360.852        -867.633          48.000  
E21  20784147.528   109221433.836        2010.800          45.000  
E 4  22751959.408   119562323.438        2428.346          38.000  
G21  20972060.497   110208854.412        -874.410          27.000  
G 9  21637977.942   113708331.331       -4112.718          33.000  
E20  15965676.437    83900200.872       -2628.525          38.000  
R14  16570708.536    88331144.357       -3303.131          44.000  
R15  15159019.054    81005152.117         659.711          48.000  
R 5  15563335.275    83194903.304       -2196.269          48.000  
R23  18258170.098    97668858.306        1293.666          40.000  
R16  18328616.865    97908104.025        3792.497          36.000  
R 6  16568414.093    88412154.382        2546.021          43.000  
> 2019 11 26 15  6 34.9860000  0 21                     
G30  16298697.398    85650234.525        -714.868          53.000  
G13  17070016.610    89703525.449        1857.883          49.000  
G 7  17758497.326    93321519.488       -2550.443          49.000  
G 5  18009790.731    94642100.666       -2588.313          48.000  
G28  17971427.021    94440480.918        2362.651          46.000  
G 8  19140640.601   100584746.141         379.400          42.000  
G15  19241191.224   101113129.323        3108.746          44.000  
E30  21552852.602   113260991.480       -3109.688          28.000  
E19  19527159.397   102615898.051        -163.881          43.000  
E27  19561474.962   102796228.400        -868.114          48.000  
E21  20783764.862   109219423.050        2010.232          45.000  
E 4  22751497.204   119559895.172        2427.841          38.000  
G21  20972225.829   110209728.254        -874.645          27.000  
G 9  21638759.092   113712443.780       -4112.927          33.000  
E20  15966176.281    83902829.965       -2629.602          38.000  
R14  16571328.359    88334447.448       -3303.631          44.000  
R15  15158895.533    81004492.498         658.890          48.000  
R 5  15563745.835    83197099.695       -2197.198          48.000  
R23  18257928.535    97667564.827        1292.732          40.000  
R16  18327906.868    97904311.118        3792.352          36.000  
R 6  16567936.838    88409608.489        2545.007          43.000  
> 2019 11 26 15  6 35.9860000  0 21                     
G30  16298833.510    85650949.629        -715.116          53.000  
G13  17069662.938    89701667.623        1857.867          49.000  
G 7  17758982.564    93324069.926       -2550.372          49.000  
G 5  18010283.359    94644689.146       -2588.581          48.000  
G28  17970977.547    94438118.282        2362.653          46.000  
G 8  19140568.357   100584366.876         379.039          42.000  
G15  19240599.653   101110020.491        3109.141          44.000  
E30  21553444.234   113264101.767       -3110.252          28.000  
E19  19527190.484   102616062.211        -164.207          43.000  
E27  19561640.442   102797096.724        -868.351          48.000  
E21  20783382.685   109217412.896        2010.296          45.000  
E 4  22751035.402   119557467.414        2427.930          38.000  
G21  20972394.782   110210602.940        -874.782          27.000  
G 9  21639542.118   113716556.485       -4111.566          32.000  
E20  15966676.588    83905459.638       -2629.243          38.000  
R14  16571948.392    88337751.388       -3303.943          44.000  
R15  15158772.247    81003833.993         658.414          48.000  
R 5  15564157.084    83199297.208       -2197.630          48.000  
R23  18257687.033    97666272.553        1292.168          40.000  
R16  18327197.116    97900518.834        3792.565          36.000  
R 6  16567459.863    88407063.549        2545.050          43.000  
> 2019 11 26 15  6 36.9860000  0 21                     
G30  16298969.752    85651664.766        -715.586          52.000  
G13  17069309.248    89699809.768        1857.468          49.000  
G 7  17759467.959    93326620.230       -2550.692          48.000  
G 5  18010775.918    94647277.693       -2589.025          48.000  
G28  17970527.828    94435755.574        2362.475          45.000  
G 8  19140495.938   100583987.816         378.526          41.000  
G15  19240008.030   101106911.463        3108.750          43.000  
E30  21554036.896   113267211.731       -3110.347          27.000  
E19  19527221.380   102616226.301        -164.478          42.000  
E27  19561805.678   102797964.977        -868.571          47.000  
E21  20782999.923   109215402.576        2010.035          45.000  
E 4  22750573.075   119555039.321        2427.927          38.000  
G21  20972560.716   110211477.643        -874.755          26.000  
G 9  21640324.455   113720668.873       -4112.492          32.000  
E20  15967177.156    83908089.132       -2629.377          38.000  
R14  16572568.006    88341055.300       -3304.242          44.000  
R15  15158649.188    81003175.772         657.633          48.000  
R 5  15564568.359    83201495.040       -2198.401          48.000  
R23  18257445.548    97664980.656        1291.293          40.000  
R16  18326487.066    97896726.346        3792.078          36.000  
R 6  16566982.905    88404518.761        2544.318          43.000  
> 2019 11 26 15  6 37.9860000  0 21                     
G30  16299106.195    85652380.925        -716.566          53.000  
G13  17068956.029    89697952.854        1856.461          49.000  
G 7  17759953.416    93329171.355       -2551.604          48.000  
G 5  18011268.424    94649867.247       -2590.051          48.000  
G28  17970078.250    94433393.785        2361.448          45.000  
G 8  19140424.026   100583609.906         377.526          41.000  
G15  19239416.371   101103803.162        3107.982          43.000  
E30  21554629.924   113270322.301       -3110.860          27.000  
E19  19527252.965   102616391.309        -165.465          43.000  
E27  19561971.080   102798834.132        -869.365          47.000  
E21  20782617.441   109213393.050        2009.082          44.000  
E 4  22750110.985   119552611.884        2427.198          38.000  
G21  20972724.477   110212353.378        -876.066          26.000  
G 9  21641105.954   113724781.673       -4112.854          32.000  
E20  15967677.366    83910719.407       -2630.759          38.000  
R14  16573187.837    88344360.180       -3305.383          45.000  
R15  15158526.077    81002518.793         656.370          48.000  
R 5  15564979.487    83203694.164       -2199.848          48.000  
R23  18257204.377    97663690.112        1289.921          40.000  
R16  18325777.183    97892934.635        3791.309          36.000  
R 6  16566506.235    88401975.061        2543.280          43.000  
> 2019 11 26 15  6 38.9860000  0 21                     
G30  16299242.447    85653097.255        -716.621          53.000  
G13  17068602.654    89696096.039        1856.682          49.000  
G 7  17760438.881    93331722.473       -2551.130          48.000  
G 5  18011761.628    94652456.983       -2590.055          48.000  
G28  17969628.880    94431032.062        2361.448          45.000  
G 8  19140352.035   100583232.301         377.412          41.000  
G15  19238824.608   101100694.785        3108.109          43.000  
E30  21555222.263   113273432.706       -3110.516          27.000  
E19  19527284.078   102616556.372        -165.214          43.000  
E27  19562136.369   102799703.364        -869.316          47.000  
E21  20782234.941   109211383.475        2009.419          45.000  
E 4  22749648.694   119550184.249        2427.914          38.000  
G21  20972891.031   110213229.331        -876.566          26.000  
G 9  21641888.719   113728894.138       -4112.099          32.000  
E20  15968178.083    83913349.579       -2630.201          38.000  
R14  16573807.835    88347665.148       -3305.139          45.000  
R15  15158403.253    81001862.170         656.278          48.000  
R 5  15565391.198    83205893.723       -2199.890          48.000  
R23  18256963.215    97662400.072        1289.716          40.000  
R16  18325067.570    97889142.852        3791.430          36.000  
R 6  16566029.547    88399431.613        2543.280          43.000  
> 2019 11 26 15  6 39.9860000  0 21                     
G30  16299378.864    85653814.569        -717.775          53.000  
G13  17068249.496    89694240.143        1855.401          49.000  
G 7  17760924.372    93334274.407       -2552.426          48.000  
G 5  18012254.658    94655047.690       -2591.267          48.000  
G28  17969179.459    94428671.195        2360.516          45.000  
G 8  19140280.367   100582855.813         376.189          41.000  
G15  19238233.002   101097587.120        3107.304          43.000  
E30  21555815.369   113276543.629       -3110.611          28.000  
E19  19527315.541   102616722.322        -166.286          42.000  
E27  19562301.832   102800573.470        -870.496          47.000  
E21  20781852.668   109209374.667        2008.430          44.000  
E 4  22749186.813   119547757.243        2426.790          38.000  
G21  20973058.431   110214106.113        -877.101          26.000  
G 9  21642671.492   113733007.098       -4113.762          31.000  
E20  15968678.965    83915980.511       -2631.064          38.000  
R14  16574427.937    88350971.043       -3306.189          45.000  
R15  15158280.639    81001206.756         654.824          48.000  
R 5  15565802.866    83208094.534       -2201.366          48.000  
R23  18256722.201    97661111.348        1287.970          40.000  
R16  18324357.948    97885351.769        3790.793          36.000  
R 6  16565553.078    88396889.252        2541.626          43.000  
> 2019 11 26 15  6 40.9860000  0 21                     
G30  16299515.447    85654532.159        -718.044          53.000  
