     3.03           OBSERVATION DATA    M: Mixed            RINEX VERSION / TYPE
RTKCONV 2.4.3 b33   MKJ                 20191127 110009 UTC PGM / RUN BY / DATE 
Low-cost receiver                                           MARKER NAME               
NON GEODETIC                                                MARKER TYPE         
M. Kirkko-Jaakkola  Finnish Geospatial Research Institute   OBSERVER / AGENCY   
                    U-Blox M8T          10/19               REC # / TYPE / VERS
                    Septentrio PolaNt Choke Ring B3/E6      ANT # / TYPE       
  2853707.8301  1211344.0887  5555361.7611                  APPROX POSITION XYZ 
        0.0000        0.0000        0.0000                  ANTENNA: DELTA H/E/N
G    4 C1C L1C D1C S1C                                      SYS / # / OBS TYPES 
R    4 C1C L1C D1C S1C                                      SYS / # / OBS TYPES 
E    4 C1C L1C D1C S1C                                      SYS / # / OBS TYPES 
  2019    12     1    15    20   14.9920000     GPS         TIME OF FIRST OBS   
  2019    12     1    15    33   19.9930000     GPS         TIME OF LAST OBS    
G                                                           SYS / PHASE SHIFT   
R                                                           SYS / PHASE SHIFT   
E                                                           SYS / PHASE SHIFT   
  0                                                         GLONASS SLOT / FRQ #
 C1C    0.000 C1P    0.000 C2C    0.000 C2P    0.000        GLONASS COD/PHS/BIS 
                                                            END OF HEADER       
> 2019 12  1 15 20 14.9920000  0 23                     
G 2  21535693.165   113170833.111        2443.671          46.000  
G 4  19323114.598   101543649.989         -15.526          46.000  
G10  20540141.181   107939168.062        2691.725          46.000  
G13  19105191.720   100398460.277        2014.847          46.000  
G20  19295752.888   101399863.329       -3211.555          46.000  
G23  18125411.505    95249679.203         140.698          46.000  
G31  21043997.534   110586951.106       -3161.534          49.000  
G32  21538728.103   113186779.175       -3782.416          46.000  
R14  18045819.129    96194314.416        1718.885          44.000  
R13  18688826.385    99797221.578       -2521.412          49.000  
R 5  18094641.860    96726185.630        2055.487          46.000  
R20  19802532.849   105893009.079       -3637.155          46.000  
R 4  17226464.602    92246896.666       -1910.795          45.000  
E 7  24561855.427   129073432.263       -1245.000          43.000  
E 8  25331988.469   133120507.124       -3191.357          43.000  
E16  21136868.688   111075003.443       -1193.688          43.000  
E24  22223831.022   116787029.327       -1030.735          43.000  
E15  22242640.518   116885875.666        1282.234          43.000  
E17  23561107.673   123814455.428       -3178.510          43.000  
E22  25393817.782   133445420.982        2718.489          43.000  
E25  24868736.064   130686100.233       -3101.390          44.000  
E23  22455110.737   118002392.418        1524.172          44.000  
E 6  25475968.446   133877129.381        1052.000          43.000  
> 2019 12  1 15 20 15.9920000  0 23                     
G 2  21535221.728   113168356.073        2504.431          46.000  
G 4  19323112.430   101543639.735          37.281          46.000  
G10  20539622.314   107936443.107        2758.641          46.000  
G13  19104806.371   100396436.428        2040.056          46.000  
G20  19296369.077   101403100.615       -3259.118          46.000  
G23  18125385.475    95249542.064         136.972          46.000  
G31  21044601.322   110590123.663       -3193.146          49.000  
G32  21539454.477   113190597.150       -3850.958          46.000  
R14  18045501.242    96192620.555        1671.948          44.000  
R13  18689300.307    99799752.699       -2548.617          49.000  
R 5  18094252.689    96724105.780        2103.751          46.000  
R20  19803207.605   105896616.532       -3573.433          46.000  
R 4  17226823.933    92248820.732       -1937.794          45.000  
E 7  24562086.324   129074643.558       -1182.848          43.000  
E 8  25332588.977   133123664.672       -3120.359          43.000  
E16  21137097.338   111076204.215       -1204.521          43.000  
E24  22224031.146   116788080.241       -1074.396          43.000  
E15  22242391.833   116884569.041        1332.183          43.000  
E17  23561718.889   123817667.046       -3241.099          43.000  
E22  25393302.721   133442714.610        2706.097          43.000  
E25  24869327.903   130689209.385       -3127.531          43.000  
E23  22454825.003   118000890.514        1486.276          43.000  
E 6  25475765.160   133876061.418        1073.239          43.000  
> 2019 12  1 15 20 16.9920000  0 23                     
G 2  21534744.268   113165845.128        2506.213          46.000  
G 4  19323101.694   101543583.124          69.412          46.000  
G10  20539092.888   107933661.292        2796.061          46.000  
G13  19104413.338   100394372.001        2089.622          46.000  
G20  19296990.669   101406367.263       -3265.508          46.000  
G23  18125358.447    95249400.088         149.388          46.000  
G31  21045215.400   110593350.550       -3261.346          49.000  
G32  21540190.944   113194467.063       -3878.186          46.000  
R14  18045189.987    96190959.182        1659.176          44.000  
R13  18689782.993    99802330.039       -2606.788          49.000  
R 5  18093856.207    96721986.838        2127.349          46.000  
R20  19803870.325   105900159.864       -3519.544          46.000  
R 4  17227187.787    92250769.488       -1956.096          45.000  
E 7  24562309.872   129075818.940       -1178.832          43.000  
E 8  25333177.165   133126753.520       -3064.905          43.000  
E16  21137326.056   111077406.349       -1196.257          43.000  
E24  22224240.162   116789179.299       -1119.192          43.000  
E15  22242134.584   116883219.107        1361.903          43.000  
E17  23562338.273   123820921.642       -3257.865          43.000  
E22  25392783.296   133439985.639        2760.423          43.000  
E25  24869929.938   130692371.814       -3199.321          43.000  
E23  22454542.454   117999403.167        1497.232          43.000  
E 6  25475565.048   133875008.607        1023.951          43.000  
> 2019 12  1 15 20 17.9920000  0 23                     
G 2  21534272.281   113163365.549        2447.125          46.000  
G 4  19323089.153   101543519.097          50.786          46.000  
G10  20538562.713   107930873.809        2769.389          46.000  
G13  19104012.707   100392265.336        2117.738          46.000  
G20  19297608.625   101409615.530       -3225.199          46.000  
G23  18125328.568    95249242.041         166.304          46.000  
G31  21045840.809   110596637.656       -3303.733          49.000  
G32  21540926.115   113198330.333       -3839.014          46.000  
R14  18044876.402    96189286.768        1692.071          44.000  
R13  18690275.491    99804958.686       -2643.053          49.000  
R 5  18093459.908    96719868.063        2103.856          46.000  
R20  19804528.037   105903676.955       -3525.346          46.000  
R 4  17227552.894    92252724.727       -1949.681          45.000  
E 7  24562539.135   129077023.578       -1236.760          44.000  
E 8  25333760.257   133129818.622       -3076.562          43.000  
E16  21137551.641   111078592.965       -1176.154          43.000  
E24  22224454.326   116790304.721       -1123.342          43.000  
E15  22241876.824   116881862.179        1344.858          43.000  
E17  23562954.722   123824161.343       -3213.630          43.000  
E22  25392250.898   133437187.941        2832.448          43.000  
E25  24870544.515   130695600.933       -3250.179          43.000  
E23  22454252.793   117997882.668        1546.838          43.000  
E 6  25475377.427   133874022.793         949.560          43.000  
> 2019 12  1 15 20 18.9920000  0 23                     
G 2  21533813.393   113160953.956        2381.018          46.000  
G 4  19323084.287   101543493.918          -2.362          46.000  
G10  20538042.191   107928137.163        2702.390          46.000  
G13  19103610.802   100390153.852        2098.073          46.000  
G20  19298217.408   101412814.779       -3175.715          46.000  
G23  18125296.063    95249071.831         171.426          46.000  
G31  21046468.236   110599935.752       -3282.060          49.000  
G32  21541649.941   113202134.498       -3770.026          46.000  
R14  18044554.332    96187570.571        1739.077          44.000  
R13  18690769.550    99807597.161       -2624.971          49.000  
R 5  18093070.987    96717788.811        2054.464          46.000  
R20  19805192.424   105907230.246       -3586.282          46.000  
R 4  17227914.545    92254662.679       -1924.901          45.000  
E 7  24562781.211   129078296.045       -1303.960          43.000  
E 8  25334351.782   133132926.785       -3144.391          43.000  
E16  21137773.839   111079761.683       -1163.555          43.000  
E24  22224664.449   116791410.839       -1084.011          43.000  
E15  22241625.406   116880541.159        1295.623          43.000  
E17  23563559.780   123827341.981       -3149.219          43.000  
E22  25391708.489   133434338.517        2855.470          44.000  
E25  24871162.388   130698848.942       -3234.199          43.000  
E23  22453953.781   117996311.972        1589.162          43.000  
E 6  25475200.709   133873094.490         917.782          43.000  
> 2019 12  1 15 20 19.9920000  0 23                     
G 2  21533362.516   113158585.552        2367.584          46.000  
G 4  19323089.219   101543519.511         -42.521          46.000  
G10  20537533.338   107925462.097        2656.243          46.000  
G13  19103216.543   100388080.516        2047.502          46.000  
G20  19298819.801   101415980.533       -3163.497          46.000  
G23  18125264.146    95248905.762         158.714          46.000  
G31  21047087.086   110603186.644       -3217.166          49.000  
G32  21542363.005   113205882.303       -3735.126          46.000  
R14  18044225.789    96185819.568        1756.090          44.000  
R13  18691256.420    99810196.473       -2570.692          49.000  
R 5  18092690.363    96715753.258        2023.448          46.000  
R20  19805869.134   105910850.282       -3648.014          46.000  
R 4  17228272.292    92256576.779       -1905.849          45.000  
E 7  24563032.078   129079613.767       -1319.831          43.000  
E 8  25334956.603   133136106.268       -3207.524          43.000  
E16  21137995.625   111080927.591       -1170.808          43.000  
E24  22224866.383   116792470.866       -1038.341          43.000  
E15  22241383.060   116879266.861        1258.836          43.000  
E17  23564155.515   123830474.613       -3124.997          43.000  
E22  25391168.889   133431502.718        2807.529          44.000  
E25  24871771.806   130702051.618       -3166.616          43.000  
E23  22453650.880   117994721.265        1584.118          43.000  
E 6  25475023.563   133872162.480         956.445          43.000  
> 2019 12  1 15 20 20.9920000  0 23                     
G 2  21532907.482   113156195.838        2419.611          46.000  
G 4  19323097.438   101543561.406         -32.406          46.000  
G10  20537026.937   107922802.656        2673.492          46.000  
G13  19102830.516   100386053.251        2013.140          46.000  
G20  19299424.553   101419159.181       -3199.808          46.000  
G23  18125235.848    95248756.472         140.482          46.000  
G31  21047693.677   110606375.569       -3168.278          49.000  
G32  21543075.774   113209628.147       -3766.125          46.000  
R14  18043898.296    96184075.164        1726.806          44.000  
R13  18691733.308    99812744.019       -2530.137          49.000  
R 5  18092311.091    96713725.483        2039.577          46.000  
R20  19806552.816   105914506.458       -3653.035          46.000  
R 4  17228628.351    92258482.602       -1909.687          45.000  
E 7  24563279.098   129080912.677       -1269.636          43.000  
E 8  25335568.396   133139319.570       -3207.105          43.000  
E16  21138220.497   111082108.426       -1191.357          43.000  
E24  22225062.722   116793500.492       -1028.259          43.000  
E15  22241143.298   116878007.058        1268.645          43.000  
E17  23564753.030   123833614.231       -3162.371          43.000  
E22  25390642.030   133428733.059        2733.304          43.000  
E25  24872368.181   130705186.297       -3109.375          43.000  
E23  22453353.633   117993159.126        1536.672          43.000  
E 6  25474834.117   133871168.987        1030.696          43.000  
> 2019 12  1 15 20 21.9920000  0 23                     
G 2  21532440.200   113153739.990        2488.525          46.000  
G 4  19323098.740   101543570.578          17.281          46.000  
G10  20536512.393   107920098.521        2737.776          46.000  
G13  19102446.960   100384037.795        2025.560          46.000  
G20  19300038.554   101422385.340       -3251.412          46.000  
G23  18125209.985    95248621.441         132.138          46.000  
G31  21048296.864   110609544.882       -3181.118          49.000  
G32  21543799.361   113213428.119       -3834.918          46.000  
R14  18043578.787    96182373.151        1677.498          44.000  
R13  18692207.492    99815275.276       -2541.664          49.000  
R 5  18091924.992    96711662.566        2087.542          46.000  
R20  19807231.473   105918135.326       -3598.136          46.000  
R 4  17228987.219    92260403.692       -1934.342          45.000  
E 7  24563513.710   129082146.173       -1199.979          43.000  
E 8  25336172.916   133142498.115       -3143.907          43.000  
E16  21138449.119   111083308.233       -1206.260          43.000  
E24  22225261.288   116794543.504       -1063.433          43.000  
E15  22240897.616   116876716.205        1315.620          43.000  
E17  23565361.194   123836809.371       -3227.816          43.000  
E22  25390126.133   133426021.027        2701.122          43.000  
E25  24872959.571   130708292.765       -3115.094          43.000  
E23  22453066.255   117991647.930        1489.931          43.000  
E 6  25474633.256   133870112.906        1071.561          43.000  
> 2019 12  1 15 20 22.9920000  0 23                     
G 2  21531963.526   113151234.754        2510.565          46.000  
G 4  19323090.685   101543529.109          60.416          46.000  
G10  20535985.763   107917331.163        2789.570          46.000  
G13  19102057.342   100381989.831        2072.893          46.000  
G20  19300659.928   101425650.785       -3271.885          46.000  
G23  18125184.163    95248485.965         141.222          46.000  
G31  21048907.984   110612755.804       -3244.610          49.000  
G32  21544533.995   113217289.127       -3878.375          46.000  
R14  18043267.043    96180711.553        1652.159          44.000  
R13  18692687.892    99817841.896       -2595.591          49.000  
R 5  18091530.717    96709554.815        2122.151          46.000  
R20  19807897.879   105921699.539       -3534.414          46.000  
R 4  17229350.786    92262350.531       -1957.327          45.000  
E 7  24563738.772   129083328.701       -1175.873          43.000  
E 8  25336764.079   133145605.911       -3076.821          43.000  
E16  21138678.609   111084514.433       -1203.050          43.000  
E24  22225468.498   116795632.290       -1112.663          43.000  
E15  22240642.787   116875377.982        1355.880          43.000  
E17  23565979.776   123840058.054       -3260.985          43.000  
E22  25389609.180   133423305.640        2739.826          43.000  
E25  24873558.065   130711437.440       -3179.637          43.000  
E23  22452783.869   117990164.008        1486.326          43.000  
E 6  25474431.420   133869051.475        1040.638          43.000  
> 2019 12  1 15 20 23.9920000  0 23                     
G 2  21531489.818   113148742.986        2464.917          46.000  
G 4  19323079.067   101543466.637          56.493          46.000  
G10  20535454.633   107914540.785        2780.903          46.000  
G13  19101658.668   100379895.707        2111.260          46.000  
G20  19301280.565   101428911.871       -3242.530          46.000  
G23  18125155.621    95248336.649         158.225          46.000  
G31  21049531.380   110616032.052       -3300.552          49.000  
G32  21545271.055   113221162.464       -3857.068          46.000  
R14  18042956.093    96179052.371        1673.752          44.000  
R13  18693178.941    99820464.158       -2643.210          49.000  
R 5  18091133.951    96707434.489        2111.547          46.000  
R20  19808556.922   105925222.141       -3520.924          46.000  
R 4  17229716.834    92264310.867       -1958.215          45.000  
E 7  24563965.987   129084522.344       -1219.887          43.000  
E 8  25337347.961   133148672.595       -3067.469          44.000  
E16  21138906.267   111085709.220       -1184.470          43.000  
E24  22225682.586   116796757.903       -1130.590          43.000  
E15  22240384.608   116874020.200        1352.400          43.000  
E17  23566598.303   123843309.662       -3232.118          43.000  
E22  25389080.900   133420529.397        2813.867          43.000  
E25  24874169.680   130714652.153       -3243.483          43.000  
E23  22452497.412   117988659.326        1528.580          43.000  
E 6  25474240.308   133868047.611         966.195          43.000  
> 2019 12  1 15 20 24.9920000  0 23                     
G 2  21531027.810   113146314.502        2393.701          46.000  
G 4  19323072.936   101543431.769           8.801          46.000  
G10  20534931.000   107911788.032        2719.825          46.000  
G13  19101256.982   100377783.651        2105.056          46.000  
G20  19301892.476   101432128.363       -3190.568          46.000  
G23  18125124.630    95248172.319         167.939          46.000  
G31  21050160.277   110619336.724       -3297.817          49.000  
G32  21545998.736   113224987.271       -3790.399          46.000  
R14  18042637.601    96177355.184        1721.303          44.000  
R13  18693674.558    99823110.972       -2641.255          49.000  
R 5  18090742.988    96705344.869        2065.177          46.000  
R20  19809219.476   105928764.049       -3570.632          46.000  
R 4  17230080.545    92266259.616       -1936.671          45.000  
E 7  24564204.959   129085778.446       -1291.499          44.000  
E 8  25337936.616   133151764.848       -3124.590          43.000  
E16  21139130.051   111086884.677       -1168.181          43.000  
E24  22225895.610   116797877.077       -1101.429          43.000  
E15  22240131.325   116872687.944        1308.298          43.000  
E17  23567207.011   123846510.026       -3167.255          43.000  
E22  25388540.504   133417689.814        2855.547          43.000  
E25  24874788.543   130717903.598       -3247.782          44.000  
E23  22452201.265   117987104.291        1578.185          43.000  
E 6  25474062.337   133867110.730         916.421          44.000  
> 2019 12  1 15 20 25.9920000  0 23                     
G 2  21530576.349   113143941.808        2362.274          46.000  
G 4  19323076.421   101543448.860         -38.932          46.000  
G10  20534419.364   107909099.701        2662.764          46.000  
G13  19100860.323   100375699.224        2060.256          46.000  
G20  19302496.276   101435301.873       -3163.694          46.000  
G23  18125093.158    95248006.593         160.977          46.000  
G31  21050782.715   110622607.674       -3238.851          49.000  
G32  21546714.267   113228747.925       -3739.252          46.000  
R14  18042311.002    96175615.732        1751.316          44.000  
R13  18694164.817    99825729.922       -2591.786          49.000  
R 5  18090360.977    96703301.899        2025.854          46.000  
R20  19809893.735   105932369.535       -3638.046          46.000  
R 4  17230439.444    92268183.362       -1912.489          45.000  
E 7  24564454.892   129087091.910       -1325.208          44.000  
E 8  25338538.238   133154926.565       -3195.473          43.000  
E16  21139352.004   111088051.433       -1168.618          43.000  
E24  22226100.368   116798953.329       -1051.624          43.000  
E15  22239886.852   116871403.537        1264.383          43.000  
E17  23567805.117   123849652.787       -3126.201          43.000  
E22  25387999.188   133414843.204        2826.872          43.000  
E25  24875401.454   130721125.436       -3188.750          43.000  
E23  22451898.726   117985516.475        1589.054          44.000  
E 6  25473886.910   133866189.551         937.170          43.000  
> 2019 12  1 15 20 26.9920000  0 23                     
G 2  21530123.928   113141566.420        2398.474          46.000  
G 4  19323085.127   101543495.138         -44.494          46.000  
G10  20533913.932   107906443.616        2660.652          46.000  
G13  19100472.867   100373662.979        2016.632          46.000  
G20  19303100.093   101438473.899       -3187.722          46.000  
G23  18125064.230    95247854.868         142.333          46.000  
G31  21051393.043   110625814.135       -3179.206          49.000  
G32  21547426.092   113232487.950       -3751.782          46.000  
R14  18041983.514    96173869.356        1734.341          44.000  
R13  18694645.248    99828294.953       -2541.969          49.000  
R 5  18089982.460    96701279.039        2028.270          46.000  
R20  19810577.330   105936025.000       -3662.424          46.000  
R 4  17230795.947    92270092.266       -1909.091          45.000  
E 7  24564704.742   129088405.318       -1291.345          43.000  
E 8  25339149.578   133158137.985       -3215.814          44.000  
E16  21139575.677   111089228.492       -1186.920          43.000  
E24  22226297.244   116799990.084       -1028.398          43.000  
E15  22239647.439   116870145.559        1259.948          43.000  
E17  23568401.168   123852784.663       -3147.097          43.000  
E22  25387467.907   133412052.392        2752.896          44.000  
E25  24876001.506   130724278.724       -3121.622          43.000  
E23  22451599.917   117983943.851        1550.538          44.000  
E 6  25473701.713   133865218.753        1008.118          44.000  
> 2019 12  1 15 20 27.9920000  0 23                     
G 2  21529660.876   113139132.911        2468.671          46.000  
G 4  19323089.773   101543521.847          -3.158          46.000  
G10  20533402.867   107903758.383        2715.730          46.000  
G13  19100089.968   100371651.757        2014.091          46.000  
G20  19303711.784   101441687.891       -3241.001          46.000  
G23  18125038.617    95247720.344         129.052          46.000  
G31  21051996.153   110628985.219       -3173.759          49.000  
G32  21548146.147   113236270.192       -3816.516          46.000  
R14  18041662.919    96172158.716        1685.503          44.000  
R13  18695120.064    99830830.522       -2538.081          49.000  
R 5  18089599.445    96699231.908        2069.951          46.000  
R20  19811259.201   105939671.708       -3621.838          46.000  
R 4  17231154.392    92272010.931       -1930.744          45.000  
E 7  24564944.019   129089661.972       -1221.093          43.000  
E 8  25339757.781   133161334.106       -3167.326          44.000  
E16  21139803.588   111090425.901       -1206.225          43.000  
E24  22226494.663   116801027.696       -1053.400          43.000  
E15  22239404.480   116868868.740        1298.800          43.000  
E17  23569006.224   123855962.818       -3211.508          44.000  
E22  25386949.555   133409329.103        2702.383          44.000  
E25  24876592.811   130727387.960       -3108.142          44.000  
E23  22451310.097   117982421.031        1497.315          43.000  
E 6  25473504.201   133864179.221        1063.398          43.000  
> 2019 12  1 15 20 28.9920000  0 23                     
G 2  21529186.572   113136639.769        2508.203          46.000  
G 4  19323085.118   101543499.015          46.718          46.000  
G10  20532879.980   107901009.867        2777.127          46.000  
G13  19099703.131   100369619.977        2054.355          46.000  
G20  19304332.346   101444949.255       -3274.616          46.000  
G23  18125014.141    95247591.109         132.609          46.000  
G31  21052605.026   110632183.134       -3228.296          49.000  
G32  21548878.402   113240118.984       -3873.944          46.000  
R14  18041350.590    96170494.522        1649.122          44.000  
R13  18695599.456    99833389.109       -2584.542          49.000  
R 5  18089207.700    96697139.035        2112.163          46.000  
R20  19811930.136   105943259.761       -3554.627          46.000  
R 4  17231517.592    92273955.708       -1957.419          45.000  
E 7  24565171.701   129090857.966       -1179.622          44.000  
E 8  25340353.196   133164464.354       -3094.651          43.000  
E16  21140033.806   111091635.543       -1209.283          43.000  
E24  22226699.929   116802106.327       -1103.738          43.000  
E15  22239152.104   116867545.550        1345.233          44.000  
E17  23569622.952   123859202.145       -3259.703          43.000  
E22  25386434.959   133406623.256        2721.225          44.000  
E25  24877188.760   130730518.545       -3160.922          43.000  
E23  22451027.840   117980937.270        1478.612          44.000  
E 6  25473301.925   133863115.573        1052.488          43.000  
> 2019 12  1 15 20 29.9920000  0 23                     
G 2  21528711.058   113134140.529        2479.749          46.000  
G 4  19323074.672   101543442.743          57.632          46.000  
G10  20532349.456   107898222.228        2787.297          46.000  
G13  19099307.725   100367541.214        2099.830          46.000  
G20  19304954.992   101448220.088       -3258.896          46.000  
G23  18124987.508    95247450.777         148.822          46.000  
G31  21053225.909   110635445.689       -3293.079          49.000  
G32  21549616.500   113243997.521       -3872.046          46.000  
R14  18041041.691    96168845.444        1656.955          44.000  
R13  18696089.074    99836002.659       -2639.898          49.000  
R 5  18088811.690    96695021.301        2115.336          46.000  
R20  19812591.054   105946793.580       -3523.144          46.000  
R 4  17231884.165    92275919.383       -1965.865          45.000  
E 7  24565397.612   129092045.469       -1206.167          44.000  
E 8  25340937.981   133167538.808       -3065.280          43.000  
E16  21140262.467   111092838.240       -1194.128          43.000  
E24  22226913.581   116803228.779       -1134.815          43.000  
E15  22238894.502   116866191.214        1355.429          43.000  
E17  23570242.884   123862461.364       -3248.505          43.000  
E22  25385910.220   133403868.630        2791.603          43.000  
E25  24877797.251   130733716.323       -3232.120          43.000  
E23  22450744.233   117979446.212        1510.006          44.000  
E 6  25473107.856   133862094.879         983.686          43.000  
> 2019 12  1 15 20 30.9920000  0 23                     
G 2  21528245.722   113131695.105        2409.821          46.000  
G 4  19323066.760   101543400.895          20.031          46.000  
G10  20531823.326   107895456.286        2737.676          46.000  
G13  19098906.603   100365433.095        2108.760          46.000  
G20  19305570.105   101451454.567       -3207.610          46.000  
G23  18124957.664    95247294.088         162.918          46.000  
G31  21053855.112   110638752.115       -3308.845          49.000  
G32  21550347.913   113247842.202       -3811.932          46.000  
R14  18040726.933    96167167.466        1701.890          44.000  
R13  18696585.651    99838653.814       -2653.273          49.000  
R 5  18088419.417    96692923.323        2076.455          46.000  
R20  19813252.064   105950328.526       -3556.358          46.000  
R 4  17232249.555    92277878.383       -1948.499          45.000  
E 7  24565633.973   129093285.347       -1275.808          43.000  
E 8  25341524.487   133170619.511       -3105.715          43.000  
E16  21140487.673   111094021.952       -1174.142          43.000  
E24  22227128.524   116804358.394       -1116.961          43.000  
E15  22238639.102   116864850.256        1320.914          43.000  
E17  23570855.332   123865681.503       -3187.563          43.000  
E22  25385372.751   133401044.341        2849.591          43.000  
E25  24878415.988   130736966.054       -3256.212          43.000  
E23  22450451.599   117977908.936        1563.680          43.000  
E 6  25472927.347   133861145.530         921.219          43.000  
> 2019 12  1 15 20 31.9920000  0 23                     
G 2  21527792.523   113129314.409        2361.304          46.000  
G 4  19323068.309   101543408.893         -33.683          46.000  
G10  20531308.946   107892753.306        2672.286          46.000  
G13  19098508.513   100363340.757        2071.393          46.000  
G20  19306176.394   101454640.795       -3169.676          46.000  
G23  18124926.596    95247131.459         160.326          46.000  
G31  21054481.256   110642041.830       -3262.216          49.000  
G32  21551066.923   113251620.847       -3750.085          46.000  
R14  18040403.288    96165444.016        1740.865          44.000  
R13  18697079.370    99841291.548       -2614.571          49.000  
R 5  18088035.644    96690872.068        2029.923          46.000  
R20  19813923.788   105953919.652       -3625.642          46.000  
R 4  17232611.459    92279814.084       -1922.616          45.000  
E 7  24565882.171   129094590.920       -1326.468          44.000  
E 8  25342122.655   133173763.113       -3180.503          43.000  
E16  21140709.950   111095192.590       -1169.456          43.000  
E24  22227336.828   116805452.538       -1068.644          43.000  
E15  22238392.941   116863555.291        1271.532          43.000  
E17  23571456.195   123868839.801       -3134.253          43.000  
E22  25384830.481   133398193.748        2840.615          43.000  
E25  24879032.257   130740205.038       -3211.851          43.000  
E23  22450150.716   117976329.528        1588.381          43.000  
E 6  25472753.200   133860230.874         920.571          43.000  
> 2019 12  1 15 20 32.9920000  0 23                     
G 2  21527342.686   113126949.484        2379.791          46.000  
G 4  19323077.756   101543456.233         -53.164          46.000  
G10  20530803.001   107890096.193        2652.390          46.000  
G13  19098119.186   100361294.490        2023.173          46.000  
G20  19306779.905   101457810.910       -3178.913          46.000  
G23  18124897.641    95246978.529         144.372          46.000  
G31  21055095.203   110645269.304       -3195.252          49.000  
G32  21551778.800   113255361.431       -3742.157          46.000  
R14  18040075.983    96163700.370        1738.644          44.000  
R13  18697563.430    99843877.155       -2558.188          49.000  
R 5  18087657.838    96688851.252        2019.583          46.000  
R20  19814606.589   105957570.235       -3666.459          46.000  
R 4  17232969.189    92281729.146       -1911.397          45.000  
E 7  24566133.961   129095914.828       -1310.258          44.000  
E 8  25342732.688   133176967.954       -3219.401          44.000  
E16  21140933.766   111096367.669       -1183.060          43.000  
E24  22227536.222   116806500.890       -1033.304          43.000  
E15  22238153.434   116862296.139        1254.347          43.000  
E17  23572051.767   123871969.815       -3136.139          43.000  
E22  25384295.852   133395383.731        2774.219          44.000  
E25  24879636.229   130743379.999       -3139.104          44.000  
E23  22449850.033   117974750.404        1562.723          44.000  
E 6  25472572.265   133859282.027         983.752          43.000  
> 2019 12  1 15 20 33.9920000  0 23                     
G 2  21526883.615   113124537.961        2446.301          46.000  
G 4  19323085.413   101543497.651         -22.812          46.000  
G10  20530294.859   107887426.680        2694.562          46.000  
G13  19097736.359   100359283.347        2006.567          46.000  
G20  19307389.443   101461012.956       -3228.803          46.000  
G23  18124871.769    95246843.265         127.506          46.000  
G31  21055700.060   110648447.346       -3171.491          49.000  
G32  21552495.788   113259127.820       -3797.223          46.000  
R14  18039753.485    96161981.853        1694.724          44.000  
R13  18698039.821    99846421.399       -2538.833          49.000  
R 5  18087277.174    96686817.790        2052.703          46.000  
R20  19815290.974   105961230.237       -3643.118          46.000  
R 4  17233327.363    92283646.528       -1927.085          45.000  
E 7  24566377.430   129097194.079       -1244.310          44.000  
E 8  25343343.389   133180177.028       -3188.334          43.000  
E16  21141161.317   111097561.744       -1204.482          43.000  
E24  22227733.728   116807536.378       -1045.217          43.000  
E15  22237912.848   116861030.732        1282.945          43.000  
E17  23572654.236   123875132.055       -3193.733          43.000  
E22  25383774.518   133392644.635        2709.942          43.000  
E25  24880229.257   130746497.445       -3106.238          44.000  
E23  22449557.941   117973214.812        1508.207          44.000  
E 6  25472378.125   133858262.700        1050.449          43.000  
> 2019 12  1 15 20 34.9920000  0 23                     
G 2  21526412.208   113122060.835        2500.391          46.000  
G 4  19323084.629   101543494.150          29.638          46.000  
G10  20529775.913   107884698.364        2760.618          46.000  
G13  19097352.053   100357264.700        2037.285          46.000  
G20  19308008.143   101464266.223       -3272.857          46.000  
G23  18124847.784    95246718.092         125.849          46.000  
G31  21056306.503   110651634.807       -3212.174          49.000  
G32  21553224.952   113262960.495       -3863.855          46.000  
R14  18039440.302    96160311.632        1649.816          44.000  
R13  18698517.957    99848973.979       -2573.730          49.000  
R 5  18086888.758    96684740.847        2099.366          46.000  
R20  19815966.018   105964841.776       -3577.309          46.000  
R 4  17233689.869    92285587.849       -1955.175          45.000  
E 7  24566608.356   129098407.357       -1188.804          43.000  
E 8  25343943.116   133183329.870       -3115.686          43.000  
E16  21141392.303   111098772.423       -1213.590          43.000  
E24  22227936.775   116808604.401       -1093.289          43.000  
E15  22237663.858   116859723.150        1331.985          43.000  
E17  23573268.106   123878357.710       -3252.883          43.000  
E22  25383260.749   133389941.865        2707.653          44.000  
E25  24880823.082   130749617.194       -3143.167          44.000  
E23  22449274.942   117971726.496        1475.596          43.000  
E 6  25472176.180   133857201.958        1059.784          44.000  
> 2019 12  1 15 20 35.9920000  0 23                     
G 2  21525936.085   113119559.170        2492.255          46.000  
G 4  19323076.105   101543448.054          55.809          46.000  
G10  20529247.006   107881918.563        2789.879          46.000  
G13  19096959.514   100355202.620        2086.998          46.000  
G20  19308631.537   101467542.653       -3270.868          46.000  
G23  18124822.575    95246586.090         140.530          46.000  
G31  21056924.494   110654881.676       -3280.001          49.000  
G32  21553962.869   113266838.541       -3880.487          46.000  
R14  18039132.214    96158668.624        1644.972          44.000  
R13  18699005.464    99851577.114       -2631.523          49.000  
R 5  18086493.991    96682629.392        2116.687          46.000  
R20  19816629.767   105968391.453       -3529.186          46.000  
R 4  17234056.538    92287552.654       -1969.742          45.000  
E 7  24566833.948   129099593.841       -1194.832          43.000  
E 8  25344530.915   133186417.319       -3067.602          43.000  
E16  21141622.509   111099981.806       -1201.891          43.000  
E24  22228148.937   116809720.284       -1133.172          43.000  
E15  22237407.501   116858375.943        1356.142          43.000  
E17  23573888.409   123881619.282       -3259.361          44.000  
E22  25382739.650   133387206.870        2769.885          43.000  
E25  24881428.031   130752796.545       -3215.339          44.000  
E23  22448993.461   117970245.477        1494.915          43.000  
E 6  25471979.623   133856166.726        1003.522          43.000  
> 2019 12  1 15 20 36.9920000  0 23                     
G 2  21525467.748   113117096.639        2427.991          46.000  
G 4  19323067.415   101543401.204          29.893          46.000  
G10  20528718.670   107879141.908        2754.161          46.000  
G13  19096559.723   100353101.249        2108.646          46.000  
G20  19309250.007   101470792.986       -3225.740          46.000  
G23  18124794.194    95246436.828         156.579          46.000  
G31  21057552.780   110658183.456       -3314.088          49.000  
G32  21554697.292   113270699.210       -3833.282          46.000  
R14  18038820.269    96157007.238        1682.345          44.000  
R13  18699501.818    99854227.015       -2660.575          49.000  
R 5  18086100.305    96680524.263        2087.171          46.000  
R20  19817290.053   105971923.095       -3545.015          46.000  
R 4  17234423.699    92289519.199       -1959.514          45.000  
E 7  24567066.865   129100817.524       -1258.265          43.000  
E 8  25345115.585   133189490.270       -3089.745          44.000  
E16  21141848.915   111101173.205       -1181.471          43.000  
E24  22228365.090   116810855.521       -1129.953          43.000  
E15  22237151.210   116857028.009        1332.243          43.000  
E17  23574503.939   123884856.090       -3208.171          44.000  
E22  25382205.722   133384400.517        2837.962          43.000  
E25  24882045.280   130756037.981       -3258.232          44.000  
E23  22448703.925   117968725.181        1546.886          43.000  
E 6  25471795.969   133855200.625         931.493          43.000  
> 2019 12  1 15 20 37.9920000  0 23                     
G 2  21525012.147   113114702.723        2366.498          46.000  
G 4  19323066.141   101543398.201         -24.474          46.000  
G10  20528200.920   107876421.823        2686.296          46.000  
G13  19096160.451   100351002.664        2082.122          46.000  
G20  19309859.164   101473993.751       -3179.034          46.000  
G23  18124763.862    95246277.687         159.236          46.000  
G31  21058181.226   110661487.007       -3283.066          49.000  
G32  21555420.202   113274497.297       -3765.417          46.000  
R14  18038500.311    96155300.999        1727.307          44.000  
R13  18699998.202    99856879.144       -2634.842          49.000  
R 5  18085714.861    96678462.347        2037.858          46.000  
R20  19817958.985   105975499.142       -3610.603          46.000  
R 4  17234787.335    92291466.119       -1933.455          45.000  
E 7  24567312.708   129102110.109       -1321.237          44.000  
E 8  25345710.339   133192614.630       -3161.674          43.000  
E16  21142072.033   111102348.266       -1171.253          43.000  
E24  22228576.295   116811965.675       -1086.391          43.000  
E15  22236902.363   116855720.634        1282.113          44.000  
E17  23575108.413   123888031.879       -3146.537          44.000  
E22  25381663.214   133381550.748        2850.088          43.000  
E25  24882663.805   130759288.513       -3231.642          44.000  
E23  22448405.147   117967156.884        1583.895          44.000  
E 6  25471621.824   133854285.511         910.329          44.000  
> 2019 12  1 15 20 38.9920000  0 23                     
G 2  21524563.423   113112343.298        2364.246          46.000  
G 4  19323074.766   101543443.116         -57.916          46.000  
G10  20527694.188   107873759.103        2648.719          46.000  
G13  19095769.054   100348945.906        2031.578          46.000  
G20  19310462.837   101477166.561       -3174.187          46.000  
G23  18124735.077    95246124.750         145.242          46.000  
G31  21058799.491   110664737.072       -3215.827          49.000  
G32  21556133.428   113278244.426       -3739.239          46.000  
R14  18038174.481    96153564.506        1738.276          44.000  
R13  18700486.473    99859486.773       -2578.644          49.000  
R 5  18085336.544    96676440.339        2013.742          46.000  
R20  19818639.976   105979140.935       -3665.875          46.000  
R 4  17235146.644    92293389.798       -1916.696          45.000  
E 7  24567565.766   129103439.515       -1326.010          44.000  
E 8  25346318.206   133195808.386       -3217.476          43.000  
E16  21142295.666   111103523.096       -1180.902          43.000  
E24  22228778.527   116813028.963       -1043.399          44.000  
E15  22236662.030   116854457.148        1251.669          43.000  
E17  23575704.689   123891165.728       -3130.869          44.000  
E22  25381125.878   133378724.639        2794.628          44.000  
E25  24883271.851   130762486.197       -3160.926          43.000  
E23  22448104.510   117965575.498        1571.171          43.000  
E 6  25471445.018   133853355.960         958.474          43.000  
> 2019 12  1 15 20 39.9920000  0 23                     
G 2  21524108.378   113109953.108        2422.430          46.000  
G 4  19323085.417   101543496.841         -40.888          46.000  
G10  20527188.550   107871102.292        2675.150          46.000  
G13  19095385.921   100346932.173        2002.738          46.000  
G20  19311070.521   101480359.311       -3216.062          46.000  
G23  18124709.463    95245989.095         127.060          46.000  
G31  21059406.879   110667928.199       -3175.046          49.000  
G32  21556847.831   113281999.463       -3779.688          46.000  
R14  18037851.102    96151841.189        1703.194          44.000  
R13  18700965.725    99862045.048       -2544.647          49.000  
R 5  18084958.141    96674418.890        2036.269          46.000  
R20  19819326.254   105982810.205       -3661.263          46.000  
R 4  17235504.963    92295308.769       -1925.345          45.000  
E 7  24567813.269   129104740.514       -1269.231          43.000  
E 8  25346930.403   133199026.173       -3206.242          44.000  
E16  21142522.499   111104714.600       -1202.164          43.000  
E24  22228975.944   116814067.292       -1040.972          43.000  
E15  22236422.973   116853201.019        1268.469          43.000  
E17  23576304.180   123894315.743       -3176.624          44.000  
E22  25380601.211   133375967.739        2722.537          43.000  
E25  24883867.722   130765618.049       -3111.021          44.000  
E23  22447810.120   117964028.489        1520.133          43.000  
E 6  25471255.378   133852360.364        1031.584          43.000  
> 2019 12  1 15 20 40.9920000  0 23                     
G 2  21523640.472   113107495.286        2488.361          46.000  
G 4  19323087.934   101543512.575          11.752          46.000  
G10  20526673.267   107868394.519        2742.267          46.000  
G13  19095003.698   100344923.282        2022.502          46.000  
G20  19311687.812   101483601.748       -3265.848          46.000  
G23  18124685.979    95245866.211         121.588          46.000  
G31  21060012.292   110671109.254       -3197.325          49.000  
G32  21557573.649   113285813.890       -3848.053          46.000  
R14  18037536.269    96150162.826        1655.317          44.000  
R13  18701443.360    99864595.015       -2563.880          49.000  
R 5  18084572.674    96672358.330        2085.318          46.000  
R20  19820005.538   105986443.788       -3600.450          46.000  
R 4  17235867.007    92297246.257       -1950.931          45.000  
E 7  24568048.260   129105974.189       -1202.178          43.000  
E 8  25347534.063   133202200.535       -3137.698          44.000  
E16  21142752.836   111105924.467       -1214.901          43.000  
E24  22229177.867   116815125.743       -1080.729          44.000  
E15  22236177.333   116851908.974        1317.773          43.000  
E17  23576914.927   123897525.034       -3240.053          44.000  
E22  25380086.543   133373261.837        2700.858          43.000  
E25  24884460.261   130768731.642       -3127.371          43.000  
E23  22447525.442   117962531.845        1478.333          44.000  
E 6  25471055.039   133851308.049        1062.624          44.000  
> 2019 12  1 15 20 41.9920000  0 23                     
G 2  21523164.629   113104995.531        2499.756          46.000  
G 4  19323081.460   101543479.132          49.459          46.000  
G10  20526146.421   107865626.083        2786.784          46.000  
G13  19094614.262   100342877.016        2071.472          46.000  
G20  19312311.380   101486878.323       -3279.107          46.000  
G23  18124661.898    95245740.394         132.471          46.000  
G31  21060626.806   110674338.835       -3263.988          49.000  
G32  21558310.177   113289684.827       -3883.417          46.000  
R14  18037228.142    96148520.703        1636.477          44.000  
R13  18701928.873    99867186.154       -2620.709          49.000  
R 5  18084179.167    96670255.450        2114.137          46.000  
R20  19820672.869   105990011.928       -3541.005          46.000  
R 4  17236233.514    92299209.076       -1971.932          45.000  
E 7  24568274.125   129107164.026       -1188.468          44.000  
E 8  25348124.591   133205304.197       -3076.173          44.000  
E16  21142983.805   111107137.881       -1208.742          43.000  
E24  22229388.199   116816231.376       -1128.082          43.000  
E15  22235922.651   116850571.057        1352.692          43.000  
E17  23577535.011   123900782.501       -3264.959          43.000  
E22  25379568.734   133370541.882        2748.480          43.000  
E25  24885061.696   130771891.569       -3196.210          43.000  
E23  22447244.515   117961055.650        1482.239          44.000  
E 6  25470855.574   133850260.878        1021.833          44.000  
> 2019 12  1 15 20 42.9920000  0 23                     
G 2  21522693.512   113102518.952        2446.698          46.000  
G 4  19323072.757   101543431.674          37.805          46.000  
G10  20525617.071   107862843.834        2768.320          46.000  
G13  19094216.504   100340786.497        2104.619          46.000  
G20  19312932.331   101490142.994       -3243.228          46.000  
G23  18124635.155    95245599.683         149.534          46.000  
G31  21061253.402   110677631.838       -3313.318          49.000  
G32  21559047.357   113293558.064       -3852.185          46.000  
R14  18036919.203    96146874.090        1663.861          44.000  
R13  18702424.489    99869831.402       -2662.785          49.000  
R 5  18083784.605    96668146.891        2096.438          46.000  
R20  19821333.849   105993546.180       -3537.641          46.000  
R 4  17236601.635    92301181.834       -1968.387          45.000  
E 7  24568504.704   129108374.766       -1240.081          43.000  
E 8  25348709.390   133208375.617       -3077.816          44.000  
E16  21143211.689   111108337.623       -1189.012          43.000  
E24  22229604.963   116817368.824       -1138.533          43.000  
E15  22235665.223   116849220.233        1341.908          43.000  
E17  23578153.414   123904033.371       -3227.398          43.000  
E22  25379038.187   133367756.364        2821.975          44.000  
E25  24885676.380   130775120.597       -3253.840          44.000  
E23  22446958.026   117959552.021        1529.464          44.000  
E 6  25470668.447   133849276.932         946.666          44.000  
> 2019 12  1 15 20 43.9920000  0 23                     
G 2  21522234.609   113100108.385        2377.905          46.000  
G 4  19323070.248   101543417.568         -12.767          46.000  
G10  20525096.262   107860106.258        2704.001          46.000  
G13  19093816.368   100338684.579        2091.547          46.000  
G20  19313544.589   101493359.728       -3191.716          46.000  
G23  18124605.835    95245444.972         157.466          46.000  
G31  21061883.438   110680943.950       -3300.183          49.000  
G32  21559773.901   113297376.139       -3783.191          46.000  
R14  18036602.539    96145185.820        1711.844          44.000  
R13  18702922.785    99872493.383       -2652.059          49.000  
R 5  18083396.804    96666073.574        2048.768          46.000  
R20  19822000.220   105997108.505       -3593.595          46.000  
R 4  17236967.012    92303139.212       -1944.210          45.000  
E 7  24568747.641   129109651.080       -1309.849          43.000  
E 8  25349300.496   133211481.818       -3141.010          43.000  
E16  21143436.531   111109518.063       -1174.003          43.000  
E24  22229818.445   116818492.641       -1103.367          44.000  
E15  22235414.208   116847900.280        1295.285          43.000  
E17  23578761.651   123907227.823       -3161.999          43.000  
E22  25378496.970   133364912.764        2854.360          43.000  
E25  24886296.244   130778376.833       -3246.949          44.000  
E23  22446662.147   117957997.392        1575.799          44.000  
E 6  25470493.207   133848355.223         906.509          43.000  
> 2019 12  1 15 20 44.9920000  0 23                     
G 2  21521785.584   113097747.878        2354.755          46.000  
G 4  19323077.682   101543455.725         -57.952          46.000  
G10  20524587.438   107857432.577        2651.190          46.000  
G13  19093422.999   100336616.553        2042.526          46.000  
G20  19314149.509   101496538.462       -3173.306          46.000  
G23  18124576.708    95245292.100         146.573          46.000  
G31  21062505.963   110684215.226       -3238.240          49.000  
G32  21560489.028   113301133.990       -3741.248          46.000  
R14  18036278.942    96143459.348        1734.260          44.000  
R13  18703414.815    99875121.672       -2600.400          49.000  
R 5  18083017.742    96664046.047        2012.780          46.000  
R20  19822679.230   106000737.228       -3659.708          46.000  
R 4  17237327.978    92305072.187       -1923.413          45.000  
E 7  24569000.451   129110979.380       -1335.531          43.000  
E 8  25349905.170   133214659.621       -3209.278          43.000  
E16  21143660.155   111110693.198       -1179.094          43.000  
E24  22230023.760   116819571.847       -1056.198          43.000  
E15  22235172.108   116846628.382        1253.921          44.000  
E17  23579359.307   123910369.606       -3130.297          44.000  
E22  25377957.161   133362073.590        2814.130          43.000  
E25  24886908.132   130781595.190       -3183.958          44.000  
E23  22446360.845   117956416.935        1577.274          44.000  
E 6  25470319.172   133847439.534         936.054          44.000  
> 2019 12  1 15 20 45.9920000  0 23                     
G 2  21521333.883   113095374.588        2400.793          46.000  
G 4  19323089.234   101543516.451         -54.434          46.000  
G10  20524083.210   107854782.318        2660.595          46.000  
G13  19093038.559   100334595.725        2004.446          46.000  
G20  19314755.497   101499723.250       -3203.062          46.000  
G23  18124550.188    95245154.467         129.150          46.000  
G31  21063116.383   110687422.454       -3182.524          49.000  
G32  21561202.025   113304880.885       -3762.823          46.000  
R14  18035955.293    96141732.771        1712.302          44.000  
R13  18703897.139    99877696.327       -2553.687          49.000  
R 5  18082640.961    96662031.931        2023.572          46.000  
R20  19823365.866   106004409.022       -3672.948          46.000  
R 4  17237687.073    92306993.491       -1923.191          45.000  
E 7  24569251.115   129112297.528       -1291.573          44.000  
E 8  25350517.946   133217879.039       -3217.756          43.000  
E16  21143886.483   111111881.043       -1197.709          43.000  
E24  22230222.125   116820615.730       -1038.616          43.000  
E15  22234934.227   116845376.582        1257.978          43.000  
E17  23579956.838   123913509.904       -3159.546          43.000  
E22  25377428.692   133359296.104        2740.854          43.000  
E25  24887507.449   130784744.361       -3120.010          43.000  
E23  22446064.854   117954858.709        1534.709          44.000  
E 6  25470133.606   133846467.267        1010.537          44.000  
> 2019 12  1 15 20 46.9920000  0 23                     
G 2  21520870.305   113092937.863        2470.819          46.000  
G 4  19323095.224   101543550.013          -8.426          46.000  
G10  20523571.157   107852093.808        2720.930          46.000  
G13  19092657.279   100332592.464        2009.783          46.000  
G20  19315370.311   101502953.033       -3256.360          46.000  
G23  18124526.883    95245032.063         118.096          46.000  
G31  21063721.340   110690601.765       -3187.150          49.000  
G32  21561924.560   113308676.392       -3830.591          46.000  
R14  18035638.702    96140045.107        1662.572          44.000  
R13  18704374.708    99880247.543       -2557.987          49.000  
R 5  18082258.169    96659987.021        2068.662          46.000  
R20  19824048.592   106008061.617       -3624.564          46.000  
R 4  17238048.362    92308927.266       -1946.860          45.000  
E 7  24569490.185   129113553.216       -1220.766          44.000  
E 8  25351125.309   133221072.105       -3160.864          44.000  
E16  21144116.173   111113088.331       -1215.087          43.000  
E24  22230422.314   116821666.523       -1069.359          43.000  
E15  22234690.751   116844098.743        1301.541          43.000  
E17  23580564.284   123916701.434       -3224.744          44.000  
E22  25376911.764   133356580.997        2699.295          44.000  
E25  24888099.742   130787856.964       -3116.890          44.000  
E23  22445777.757   117953350.733        1484.441          44.000  
E 6  25469936.260   133845428.325        1058.341          44.000  
> 2019 12  1 15 20 47.9920000  0 23                     
G 2  21520396.453   113090447.088        2500.616          46.000  
G 4  19323092.081   101543533.681          37.621          46.000  
G10  20523047.515   107849342.199        2776.878          46.000  
G13  19092271.079   100330562.817        2053.344          46.000  
G20  19315993.197   101506227.150       -3284.230          46.000  
G23  18124504.185    95244912.779         123.542          46.000  
G31  21064333.372   110693816.749       -3247.650          49.000  
G32  21562659.179   113312536.921       -3882.025          46.000  
R14  18035330.030    96138401.764        1630.687          44.000  
R13  18704858.228    99882829.231       -2609.765          49.000  
R 5  18081867.018    96657897.299        2106.194          46.000  
R20  19824720.151   106011652.405       -3558.876          46.000  
R 4  17238414.577    92310888.163       -1972.632          45.000  
E 7  24569718.628   129114753.460       -1189.115          44.000  
E 8  25351720.008   133224196.740       -3091.304          43.000  
E16  21144347.681   111114305.707       -1215.794          43.000  
E24  22230630.670   116822761.977       -1120.625          43.000  
E15  22234438.741   116842774.380        1343.918          43.000  
E17  23581182.637   123919951.470       -3266.529          44.000  
E22  25376396.496   133353873.030        2728.222          44.000  
E25  24888698.313   130791000.852       -3177.190          43.000  
E23  22445497.463   117951876.587        1472.695          44.000  
E 6  25469735.759   133844375.669        1035.991          44.000  
> 2019 12  1 15 20 48.9920000  0 23                     
G 2  21519923.321   113087960.540        2463.190          46.000  
G 4  19323083.862   101543490.087          41.281          46.000  
G10  20522518.089   107846559.770        2777.458          46.000  
G13  19091875.823   100328486.320        2095.658          46.000  
G20  19316616.756   101509503.404       -3260.446          46.000  
G23  18124479.089    95244781.014         140.649          46.000  
G31  21064957.697   110697097.446       -3308.104          49.000  
G32  21563397.724   113316418.108       -3869.092          46.000  
R14  18035023.783    96136767.003        1646.219          44.000  
R13  18705352.134    99885466.890       -2661.285          49.000  
R 5  18081472.787    96655789.189        2102.309          46.000  
R20  19825382.648   106015195.010       -3536.313          46.000  
R 4  17238783.972    92312865.332       -1977.039          45.000  
E 7  24569947.492   129115955.468       -1224.577          44.000  
E 8  25352305.332   133227272.786       -3071.993          43.000  
E16  21144577.485   111115513.673       -1198.397          43.000  
E24  22230846.963   116823898.037       -1144.593          43.000  
E15  22234181.536   116841424.801        1347.290          43.000  
E17  23581803.278   123923212.428       -3245.424          44.000  
E22  25375870.540   133351109.335        2801.520          44.000  
E25  24889309.690   130794214.166       -3244.915          43.000  
E23  22445214.261   117950387.935        1510.622          44.000  
E 6  25469545.359   133843374.142         963.914          44.000  
> 2019 12  1 15 20 49.9920000  0 23                     
G 2  21519461.490   113085533.572        2391.602          46.000  
G 4  19323079.892   101543468.160          -2.311          46.000  
G10  20521994.796   107843808.009        2720.779          46.000  
G13  19091476.388   100326386.625        2096.277          46.000  
G20  19317232.208   101512738.596       -3208.516          46.000  
G23  18124451.433    95244633.743         152.344          46.000  
G31  21065589.004   110700414.523       -3314.500          49.000  
G32  21564128.225   113320257.359       -3805.157          46.000  
R14  18034711.049    96135098.625        1692.531          44.000  
R13  18705852.048    99888135.971       -2667.159          49.000  
